     2.11           OBSERVATION DATA    M (MIXED)           RINEX VERSION / TYPE
teqc  2019Feb25                         20260317 16:20:08UTCPGM / RUN BY / DATE
Linux 2.4.21-27.ELsmp|Opteron|gcc -static|Linux 64|=+       COMMENT
BIT 2 OF LLI FLAGS DATA COLLECTED UNDER A/S CONDITION       COMMENT
-Unknown-                                                   MARKER NAME
-Unknown-           -Unknown-                               OBSERVER / AGENCY
-Unknown-           -Unknown-           -Unknown-           REC # / TYPE / VERS
-Unknown-           -Unknown-                               ANT # / TYPE
        0.0000        0.0000        0.0000                  APPROX POSITION XYZ
        0.0000        0.0000        0.0000                  ANTENNA: DELTA H/E/N
     1     1                                                WAVELENGTH FACT L1/2
     7    L1    L2    C1    P1    P2    S1    S2            # / TYPES OF OBSERV
 SNR is mapped to RINEX snr flag value [0-9]                COMMENT
  L1 & L2: min(max(int(snr_dBHz/6), 0), 9)                  COMMENT
  2025     1     1     4     0    0.0000000     GPS         TIME OF FIRST OBS
    18                                                      LEAP SECONDS
                                                            END OF HEADER
 25  1  1  4  0  0.0000000  0 31E34G25E03E08S31S35G13E21E13S33G12G20
                                E15R22G05G11G06G29R07R23E27R15R13E05
                                G09R24E30R14R01R08G19
 138104343.146 7                  26280332.762
        43.200
 113122504.900 7  88147492.75447  21526470.006    21526469.0144   21526472.5534
        47.000          46.1004
 139894128.933 6                  26620958.735
        41.100
 149060925.722 6                  28365350.813
        36.400
 198982189.123 7                  37865043.534
        45.800
 200940665.584 7                  38237745.158
        44.600
 131940976.945 6 102811162.34642  25107533.929    25107533.3664   25107535.5184
        36.500          12.2004
 136520672.374 7                  25979004.670
        43.600
 132494471.983 7                  25212839.471
        45.200
 202127623.744 7                  38463580.239
        45.400
 114617473.934 8  89312447.69147  21810932.222    21810931.5794   21810931.6184
        48.200          45.8004
 106468386.576 7  82962433.47746  20260234.475    20260233.2104   20260233.7494
        47.400          40.8004
 124221743.834 8                  23638573.741
        49.300
 123465578.365 7  96028918.391 7  23129221.391    23129221.478    23129228.014
        43.700          42.100
 108962497.487 8  84905891.61648  20734854.914    20734854.4234   20734854.6294
        49.100          49.4004
 111895053.440 8  87191053.16646  21292883.959    21292883.6334   21292883.9614
        48.200          38.8004
 124417242.893 6  96948645.39646  23675774.061    23675773.7574   23675777.6134
        41.700          37.3004
 120903027.576 7  94210187.59346  23007067.321    23007066.7364   23007067.1434
        46.500          41.5004
 118950997.890 8  92517508.123 7  22221028.557    22221028.919    22221035.617
        49.300          44.600
 108817514.563 8                  20342253.057    20342253.232
        49.600
 128363457.289 8                  24426698.695
        48.000
 125846823.258 7  97880908.748 6  23550517.639    23550517.964    23550524.650
        45.400          41.700
 121473099.017 6                  22747965.093    22747964.134
        39.400
 134895183.732 6                  25669689.291
        39.700
 129903937.485 6 101223887.23545  24719887.623    24719887.0654   24719890.2344
        38.600          31.5004
 113031290.666 8  87913299.369 7  21137406.088    21137406.454    21137412.422
        50.300          45.100
 141131729.763 7                  26856428.031
        42.100
 114868419.075 8  89342151.216 7  21549015.830    21549015.592    21549021.401
        49.200          44.400
 118680003.627 7  92306714.230 6  22201541.733    22201541.834    22201551.387
        43.700          36.600
 109266577.430 8  84985185.076 7  20404748.665    20404749.281    20404754.902
        49.500          47.000
 127212748.950 6  99126938.70143  24207734.061    24207732.6224   24207735.6324
        37.700          22.8004
 25  1  1  4  0 15.0000000  0 31E34G25E03E08S31S35G13E21E13S33G12G20
                                E15R22G05G11G06G29R07R23E27R15R13E05
                                G09R24E30R14R01R08G19
 138133820.650 7                  26285941.994
        43.100
 113129959.824 7  88153301.78747  21527888.867    21527887.8794   21527891.1394
        46.700          46.0004
 139861261.301 6                  26614704.167
        41.500
 149019548.906 5                  28357477.216
        35.800
 198982185.224 7                  37865043.006
        45.700
 200940692.134 7                  38237747.300
        44.600
 131892655.277 6 102773509.09042  25098337.591    25098337.0414   25098340.2174
        37.100          15.0004
 136500178.414 7                  25975105.006
        43.400
 132472896.531 7                  25208733.669
        45.400
 202127607.017 7                  38463574.242
        45.600
 114656832.892 8  89343116.99347  21818422.114    21818421.4664   21818421.4294
        48.200          45.7004
 106477789.907 7  82969760.74746  20262023.719    20262022.4454   20262023.1134
        47.200          40.7004
 124229043.458 8                  23639962.782
        49.300
 123503887.470 7  96058714.342 7  23136398.023    23136398.513    23136404.771
        45.300          42.200
 108932380.437 8  84882423.80248  20729123.607    20729123.1074   20729123.5384
        49.200          49.3004
 111917064.332 8  87208204.50946  21297072.498    21297072.1774   21297072.4804
        48.600          38.7004
 124456356.387 6  96979123.44046  23683217.133    23683216.8294   23683220.6654
        41.000          37.0004
 120857761.272 7  94174915.16246  22998453.181    22998452.5784   22998453.1624
        46.100          41.4004
 118988947.349 8  92547024.375 7  22228118.165    22228118.757    22228124.815
        49.300          44.500
 108830995.129 8                  20344772.864    20344773.072
        49.900
 128384273.452 8                  24430659.962
        48.200
 125810333.017 7  97852527.403 6  23543688.032    23543688.777    23543695.025
        45.300          40.900
 121531829.493 6                  22758962.632    22758962.515
        40.000
 134892208.652 6                  25669123.351
        40.300
 129925935.306 6 101241028.32645  24724073.550    24724072.9834   24724076.3744
        37.200          31.0004
 113001490.545 8  87890121.517 7  21131833.497    21131833.658    21131839.832
        50.000          45.000
 141177796.087 6                  26865194.491
        41.900
 114881089.727 8  89352006.165 7  21551392.644    21551392.514    21551398.431
        49.300          44.400
 118616337.807 7  92257196.415 6  22189632.618    22189631.766    22189640.398
        43.300          36.400
 109251147.635 8  84973184.144 7  20401867.784    20401868.053    20401873.411
        49.500          47.000
 127262598.071 6  99165782.12243  24217220.420    24217219.0164   24217221.4774
        37.800          22.1004
 25  1  1  4  0 30.0000000  0 31E34G25E03E08S31S35G13E21E13S33G12G20
                                E15R22G05G11G06G29R07R23E27R15R13E05
                                G09R24E30R14R01R08G19
 138163297.955 7                  26291551.214
        43.200
 113137563.995 7  88159227.11747  21529335.802    21529334.8144   21529338.1884
        47.200          45.9004
 139828443.470 6                  26608459.119
        41.600
 148978139.936 5                  28349597.101
        35.800
 198982180.405 7                  37865042.675
        45.800
 200940718.787 7                  38237750.587
        44.600
 131844296.001 6 102735826.55742  25089135.800    25089135.2154   25089138.0604
        36.600          14.2004
 136479777.632 7                  25971222.787
        43.600
 132451350.226 7                  25204633.601
        45.300
 202127588.940 7                  38463570.280
        45.500
 114696295.040 8  89373866.71047  21825931.775    21825931.1234   21825930.8574
        48.000          45.6004
 106487312.350 7  82977180.83246  20263836.049    20263834.7804   20263835.1894
        47.100          40.6004
 124236372.100 8                  23641357.318
        49.200
 123542216.988 7  96088526.154 7  23143578.908    23143579.080    23143585.289
        44.600          42.200
 108902386.946 8  84859052.26648  20723416.301    20723415.8054   20723415.9514
        49.300          49.2004
 111939122.632 8  87225392.79346  21301269.877    21301269.5514   21301270.0604
        48.500          38.6004
 124495475.239 6  97009605.65146  23690661.017    23690660.7094   23690664.7724
        41.000          36.8004
 120812521.155 7  94139663.13746  22989844.303    22989843.7094   22989844.1934
        45.600          41.3004
 119027053.449 8  92576662.470 7  22235235.787    22235236.574    22235243.147
        48.900          44.500
 108844528.193 8                  20347303.205    20347303.214
        49.400
 128405184.497 7                  24434639.138
        47.700
 125773991.831 7  97824262.033 6  23536887.625    23536887.376    23536894.483
        45.400          41.500
 121590600.653 6                  22769968.567    22769968.774
        41.000
 134889334.936 6                  25668576.124
        40.200
 129948056.834 6 101258265.76645  24728283.837    24728283.2704   24728286.0674
        38.200          31.1004
 112971720.038 8  87866966.684 7  21126266.385    21126266.542    21126272.318
        50.700          45.300
 141223880.636 6                  26873963.961
        41.300
 114893945.715 8  89362005.284 7  21553804.731    21553804.400    21553810.428
        50.000          44.500
 118552725.111 7  92207719.905 6  22177731.092    22177731.826    22177741.741
        43.600          37.300
 109235914.993 8  84961336.554 7  20399023.025    20399023.417    20399028.752
        49.500          47.100
 127312487.164 6  99204656.71643  24226713.116    24226711.7214   24226714.9954
        38.300          22.6004
 25  1  1  4  0 45.0000000  0 31E34G25E03E08S31S35G13E21E13S33G12G20
                                E15R22G05G11G06G29R07R23E27R15R13E05
                                G09R24E30R14R01R08G19
 138192774.093 7                  26297160.560
        43.500
 113145316.422 7  88165267.96947  21530810.961    21530809.9784   21530813.4564
        46.300          46.1004
 139795674.780 6                  26602223.213
        40.700
 148936698.087 6                  28341711.119
        36.200
 198982174.602 7                  37865044.692
        46.000
 200940743.489 7                  38237756.440
        44.600
 131795898.309 6 102698114.06742  25079926.159    25079925.5514   25079928.5704
        38.200          15.0004
 136459469.228 7                  25967358.207
        43.900
 132429832.123 7                  25200538.766
        45.400
 202127569.490 7                  38463566.645
        45.500
 114735859.168 7  89404695.88847  21833460.206    21833459.5544   21833459.6614
        47.800          45.7004
 106496952.650 7  82984692.75646  20265670.360    20265669.0864   20265669.6414
        47.300          40.7004
 124243728.728 8                  23642757.121
        49.100
 123580565.942 7  96118353.104 7  23150762.331    23150762.916    23150769.420
        44.900          42.200
 108872516.548 8  84835776.64848  20717732.072    20717731.5724   20717731.7854
        49.000          49.3004
 111961227.306 8  87242617.21346  21305476.364    21305476.0384   21305476.4344
        48.000          38.8004
 124534598.492 6  97040091.30546  23698106.036    23698105.7234   23698109.7104
        40.500          37.0004
 120767306.574 7  94104431.01046  22981240.581    22981239.9914   22981240.1384
        45.500          41.6004
 119065315.098 8  92606421.543 7  22242383.992    22242384.280    22242390.629
        48.600          44.400
 108858113.178 8                  20349842.944    20349842.698
        49.600
 128426189.394 7                  24438636.218
        47.700
 125737799.164 7  97796112.144 6  23530115.332    23530114.590    23530122.126
        44.400          41.100
 121649410.877 6                  22780982.585    22780982.224
        40.500
 134886561.707 6                  25668048.596
        40.500
 129970300.850 6 101275598.60044  24732516.493    24732515.9304   24732518.5794
        36.800          29.8004
 112941978.225 8  87843834.184 7  21120704.185    21120704.420    21120710.643
        50.500          45.300
 141269982.211 6                  26882736.715
        41.600
 114906985.818 8  89372147.593 7  21556251.177    21556250.543    21556256.697
        49.600          44.400
 118489165.322 7  92158284.545 6  22165841.144    22165842.036    22165850.651
        44.500          36.600
 109220878.588 8  84949641.604 7  20396214.885    20396215.229    20396220.779
        49.000          46.900
 127362415.131 6  99243561.60343  24236214.716    24236213.2774   24236216.0844
        38.600          22.9004
 25  1  1  4  1  0.0000000  0 31E34G25E03E08S31S35G13E21E13S33G12G20
                                E15R22G05G11G06G29R07R23E27R15R13E05
                                G09R24E30R14R01R08G19
 138222253.637 7                  26302770.163
        43.300
 113153221.573 7  88171427.82747  21532315.177    21532314.1984   21532317.7554
        46.700          46.1004
 139762960.066 6                  26595997.904
        41.300
 148895228.213 5                  28333819.625
        35.800
 198982171.430 7                  37865039.026
        45.900
 200940771.350 7                  38237762.208
        44.600
 131747467.236 6 102660375.56142  25070709.121    25070708.4734   25070712.4934
        36.800          13.6004
 136439257.938 7                  25963511.912
        43.800
 132408346.747 7                  25196450.070
        45.300
 202127553.276 7                  38463562.021
        45.600
 114775529.495 7  89435607.82047  21841009.459    21841008.7984   21841008.6544
        47.600          45.7004
 106506715.375 7  82992300.07546  20267527.710    20267526.4274   20267527.4134
        47.100          40.7004
 124251117.883 8                  23644163.314
        49.200
 123618939.117 7  96148198.870 7  23157951.191    23157951.850    23157957.867
        44.600          42.300
 108842773.732 8  84812600.44648  20712072.278    20712071.7874   20712071.8824
        48.700          49.4004
 111983382.852 8  87259881.27346  21309692.559    21309692.2384   21309692.4864
        48.200          38.9004
 124573730.666 6  97070583.90346  23705552.367    23705552.0374   23705556.3704
        41.500          37.1004
 120722122.013 7  94069222.26746  22972642.125    22972641.5354   22972641.8474
        45.800          41.7004
 119103736.568 8  92636304.909 7  22249561.407    22249562.034    22249568.383
        49.000          44.600
 108871754.744 8                  20352392.938    20352392.842
        49.400
 128447292.607 7                  24442652.036
        47.800
 125701760.277 7  97768081.874 6  23523371.530    23523370.453    23523378.400
        45.100          41.800
 121708264.229 6                  22792003.801    22792003.334
        40.400
 134883893.648 6                  25667540.569
        39.600
 129992671.970 6 101293030.45945  24736773.301    24736772.7294   24736775.7744
        36.300          30.1004
 112912269.826 8  87820727.648 7  21115148.704    21115149.073    21115155.207
        50.700          45.600
 141316105.223 6                  26891513.525
        41.600
 114920214.490 8  89382436.547 7  21558732.839    21558732.620    21558738.143
        50.500          44.600
 118425663.522 7  92108894.289 6  22153962.448    22153962.464    22153971.969
        44.200          36.600
 109206043.273 8  84938103.028 7  20393444.759    20393444.836    20393450.394
        49.200          47.000
 127412386.199 6  99282500.01943  24245724.000    24245722.5744   24245725.8754
        37.400          22.9004
 25  1  1  4  1 15.0000000  0 31E34G25E03E08S31S35G13E21E13S33G12G20
                                E15R22G05G11G06G29R07R23E27R15R13E05
                                G09R24E30R14R01R08G19
 138251730.470 7                  26308379.576
        43.400
 113161273.213 7  88177701.83447  21533847.366    21533846.3874   21533849.9214
        47.100          46.0004
 139730293.524 6                  26589781.543
        41.100
 148853724.414 6                  28325922.079
        36.500
 198982165.585 7                  37865039.684
        46.100
 200940796.439 7                  38237772.699
        44.600
 131698996.932 6 102622606.47942  25061486.211    25061485.5544   25061488.8694
        37.500          14.9004
 136419137.864 7                  25959683.482
        43.500
 132386888.000 7                  25192366.942
        45.400
 202127533.084 7                  38463560.429
        45.800
 114815299.597 8  89466597.49547  21848577.275    21848576.6144   21848576.7014
        48.200          45.7004
 106516594.203 7  82999997.86546  20269407.900    20269406.6044   20269407.2834
        47.700          40.7004
 124258533.427 8                  23645574.550
        49.000
 123657330.298 7  96178058.657 7  23165142.121    23165142.255    23165149.930
        44.100          42.400
 108813152.704 8  84789519.13848  20706435.514    20706435.0274   20706435.1614
        49.300          49.3004
 112005583.101 8  87277180.16746  21313917.012    21313916.6914   21313916.9804
        48.300          38.8004
 124612865.660 6  97101078.69646  23712999.695    23712999.3694   23713003.5674
        41.600          37.0004
 120676961.819 7  94034032.51446  22964048.016    22964047.4404   22964048.0374
        45.800          41.6004
 119142311.282 8  92666307.483 7  22256767.047    22256767.714    22256774.054
        49.100          44.300
 108885446.497 8                  20354952.332    20354952.318
        49.400
 128468487.907 7                  24446685.505
        47.700
 125665868.983 7  97740166.379 6  23516654.706    23516655.333    23516660.709
        46.500          41.100
 121767154.319 6                  22803031.842    22803031.795
        40.900
 134881324.730 6                  25667052.094
        40.000
 130015163.812 6 101310556.33444  24741053.572    24741053.0054   24741056.3954
        36.900          29.7004
 112882588.624 8  87797642.276 7  21109598.588    21109598.609    21109604.796
        50.700          45.600
 141362243.323 7                  26900293.613
        42.100
 114933625.264 8  89392867.139 7  21561248.232    21561248.373    21561254.057
        49.300          44.300
 118362214.128 7  92059544.786 6  22142092.535    22142092.726    22142100.951
        44.100          36.000
 109191403.224 8  84926716.338 7  20390710.624    20390711.042    20390716.467
        49.400          47.000
 127462394.321 6  99321467.26943  24255239.674    24255238.2264   24255241.9264
        39.600          22.6004
 25  1  1  4  1 30.0000000  0 31E34G25E03E08S31S35G13E21E13S33G12G20
                                E15R22G05G11G06G29R07R23E27R15R13E05
                                G09R24E30R14R01R08G19
 138281205.583 7                  26313988.638
        43.200
 113169472.200 7  88184090.65747  21535407.460    21535406.4774   21535410.1374
        47.100          46.2004
 139697676.338 6                  26583575.041
        41.500
 148812187.881 6                  28318017.251
        37.200
 198982157.541 7                  37865038.642
        45.800
 200940819.042 7                  38237774.335
        44.800
 131650488.752 6 102584807.89042  25052255.251    25052254.5944   25052257.8704
        37.400          13.6004
 136399110.029 7                  25955872.087
        43.100
 132365456.747 7                  25188288.421
        45.400
 202127512.458 7                  38463559.119
        45.800
 114855170.062 7  89497665.37447  21856164.190    21856163.5334   21856163.8374
        47.700          45.8004
 106526589.779 7  83007786.62246  20271309.856    20271308.5514   20271309.3724
        47.200          40.8004
 124265976.219 8                  23646990.709
        49.200
 123695740.509 7  96207933.246 7  23172338.991    23172338.991    23172345.625
        44.300          42.300
 108783654.110 8  84766533.23748  20700822.002    20700821.5024   20700821.7544
        49.400          49.5004
 112027828.891 8  87294514.55246  21318150.225    21318149.9044   21318150.2204
        48.300          39.0004
 124652004.376 6  97131576.39446  23720447.786    23720447.4694   23720451.3944
        40.500          37.1004
 120631827.264 7  93998862.74446  22955459.760    22955459.1884   22955459.3874
        45.800          41.9004
 119181039.821 8  92696429.692 7  22264002.663    22264003.166    22264008.970
        49.300          44.400
 108899189.379 8                  20357521.802    20357521.444
        49.400
 128489776.100 7                  24450736.456
        47.800
 125630126.888 7  97712366.949 6  23509966.534    23509966.308    23509972.910
        44.300          41.200
 121826081.058 6                  22814066.634    22814066.838
        40.600
 134878855.943 6                  25666582.172
        40.200
 130037777.317 6 101328177.01945  24745357.859    24745357.3054   24745360.2834
        37.400          31.1004
 112852935.717 8  87774578.920 7  21104053.153    21104053.421    21104059.264
        50.500          45.800
 141408397.304 6                  26909076.117
        41.400
 114947218.841 8  89403439.928 7  21563798.691    21563798.535    21563804.648
        49.600          44.400
 118298818.649 7  92010237.210 6  22130233.535    22130233.482    22130242.235
        44.600          36.900
 109176959.620 8  84915482.448 7  20388013.264    20388013.853    20388019.327
        49.100          47.000
 127512440.457 6  99360464.14743  24264763.437    24264762.0024   24264765.4314
        38.300          23.1004
 25  1  1  4  1 45.0000000  0 31E34G25E03E08S31S35G13E21E13S33G12G20
                                E15R22G05G11G06G29R07R23E27R15R13E05
                                G09R24E30R14R01R08G19
 138310687.350 7                  26319598.802
        42.600
 113177826.834 7  88190600.76147  21536997.370    21536996.3784   21536999.9734
        46.700          46.1004
 139665117.208 6                  26577378.839
        41.300
 148770627.234 6                  28310108.692
        36.400
 198982155.573 7                  37865039.004
        46.100
 200940847.973 7                  38237779.835
        44.900
 131601951.482 6 102546986.60642  25043019.723    25043019.0624   25043021.3274
        37.300          13.6004
 136379183.086 7                  25952080.159
        43.300
 132344061.411 7                  25184217.311
        45.000
 202127496.724 7                  38463557.272
        46.000
 114895148.904 7  89528817.70447  21863772.155    21863771.4944   21863771.6064
        47.600          45.8004
 106536710.710 7  83015673.06346  20273235.875    20273234.5704   20273235.3184
        46.900          40.7004
 124273454.648 8                  23648413.848
        48.800
 123734178.345 7  96237829.295 7  23179540.419    23179540.584    23179546.158
        45.300          42.300
 108754287.199 8  84743649.94448  20695233.657    20695233.1614   20695233.3754
        48.900          49.5004
 112050128.573 8  87311890.92146  21322393.489    21322393.1724   21322393.7544
        48.500          39.0004
 124691155.184 6  97162083.50846  23727898.255    23727897.9474   23727901.5384
        41.000          37.0004
 120586727.007 7  93963719.71047  22946877.054    22946876.4824   22946877.0964
        46.400          42.0004
 119219930.218 8  92726677.787 7  22271267.563    22271267.997    22271274.373
        49.100          44.500
 108912992.519 8                  20360102.241    20360101.857
        49.400
 128511165.515 7                  24454806.535
        47.500
 125594543.127 7  97684690.700 6  23503306.153    23503305.974    23503312.920
        45.200          40.600
 121885052.684 6                  22825110.655    22825110.695
        40.300
 134876495.807 6                  25666133.250
        39.400
 130060520.880 6 101345899.08244  24749685.058    24749684.5264   24749688.2104
        36.500          29.2004
 112823319.981 8  87751544.465 7  21098514.859    21098514.624    21098520.596
        50.000          45.400
 141454575.314 6                  26917863.452
        41.400
 114961003.701 8  89414161.495 7  21566384.205    21566384.667    21566390.637
        50.700          44.800
 118235486.195 7  91960978.677 6  22118385.285    22118385.712    22118394.550
        44.300          37.200
 109162721.088 8  84904408.043 7  20385354.696    20385354.928    20385360.491
        48.900          47.100
 127562532.804 6  99399497.03543  24274296.627    24274295.1884   24274297.7684
        38.800          22.7004
 25  1  1  4  2  0.0000000  0 31E34G25E03E08S31S35G13E21E13S33G12G20
                                E15R22G05G11G06G29R07R23E27R15R13E05
                                G09R24E30R14R01R08G19
 138340164.121 7                  26325208.162
        43.500
 113186325.413 7  88197223.03347  21538614.793    21538613.8194   21538617.1894
        46.200          46.0004
 139632604.747 6                  26571192.049
        41.500
 148729031.163 5                  28302192.942
        35.700
 198982148.529 7                  37865039.558
        46.200
 200940871.868 7                  38237782.223
        44.800
 131553373.826 6 102509133.84642  25033775.108    25033774.4204   25033777.2624
        36.000          13.5004
 136359345.540 7                  25948305.283
        43.200
 132322690.369 7                  25180150.090
        45.400
 202127476.399 7                  38463547.748
        45.700
 114935224.009 7  89560045.04147  21871398.241    21871397.5804   21871397.6674
        47.700          45.6004
 106546945.138 7  83023647.94446  20275183.607    20275182.3024   20275182.8044
        46.800          40.5004
 124280957.048 8                  23649841.698
        49.000
 123772631.995 7  96267737.686 7  23186743.216    23186743.769    23186750.242
        43.900          42.200
 108725040.272 8  84720860.14648  20689668.193    20689667.6974   20689667.8374
        48.700          49.3004
 112072470.450 8  87329300.17646  21326645.175    21326644.8544   21326645.2664
        48.200          38.9004
 124730306.424 6  97192590.96246  23735348.230    23735347.9134   23735351.7664
        41.200          37.0004
 120541649.748 7  93928594.58546  22938298.832    22938298.2514   22938299.0034
        45.800          41.7004
 119258970.414 8  92757042.418 7  22278559.785    22278560.337    22278567.142
        48.500          44.400
 108926843.838 8                  20362691.138    20362691.378
        50.100
 128532644.404 7                  24458894.094
        47.600
 125559105.844 7  97657128.394 6  23496675.623    23496675.837    23496682.188
        46.000          40.900
 121944056.879 6                  22836160.688    22836160.294
        41.000
 134874232.744 6                  25665702.837
        39.900
 130083383.033 6 101363713.78645  24754036.261    24754035.7114   24754038.9564
        37.600          30.8004
 112793729.180 8  87728529.412 7  21092981.070    21092981.349    21092987.209
        50.800          45.600
 141500765.574 6                  26926653.425
        41.800
 114974967.410 8  89425022.151 7  21569004.378    21569004.260    21569009.966
        50.100          44.800
 118172205.618 7  91911760.480 6  22106547.730    22106547.494    22106556.157
        43.900          36.200
 109148676.227 8  84893484.280 7  20382732.083    20382732.098    20382737.675
        49.600          46.800
 127612659.679 6  99438556.89143  24283834.747    24283833.3304   24283836.0974
        39.500          22.5004
 25  1  1  4  2 15.0000000  0 31E34G25E03E08S31S35G13E21E13S33G12G20
                                E15R22G05G11G06G29R07R23E27R15R13E05
                                G09R24E30R14R01R08G19
 138369646.039 7                  26330818.309
        43.300
 113194977.906 7  88203965.23547  21540261.213    21540260.2394   21540263.6944
        46.800          46.0004
 139600149.374 7                  26565015.777
        42.100
 148687409.949 6                  28294273.601
        37.100
 198982146.718 7                  37865038.382
        46.200
 200940900.427 7                  38237788.166
        44.700
 131504766.344 6 102471257.89742  25024524.871    25024524.1834   25024527.6044
        37.900          14.2004
 136339607.643 7                  25944549.320
        43.700
 132301353.650 7                  25176090.155
        45.700
 202127461.146 7                  38463547.824
        45.800
 114975405.568 7  89591355.33847  21879044.656    21879043.9954   21879043.9634
        47.400          45.7004
 106557302.946 7  83031718.96646  20277154.598    20277153.2934   20277153.8234
        46.800          40.6004
 124288493.454 8                  23651275.653
        49.200
 123811111.825 7  96297666.402 7  23193951.934    23193952.458    23193958.922
        44.500          42.400
 108695923.604 8  84698171.84648  20684127.530    20684127.0394   20684127.1034
        49.100          49.4004
 112094864.543 8  87346750.12046  21330906.778    21330906.4574   21330906.7354
        48.300          38.9004
 124769468.190 6  97223106.62246  23742800.250    23742799.9244   23742803.9894
        41.100          37.0004
 120496605.708 7  93893495.34946  22929727.605    22929727.0064   22929727.3814
        46.200          41.9004
 119298170.230 8  92787531.144 7  22285883.635    22285883.929    22285890.189
        49.300          44.500
 108940753.632 8                  20365291.253    20365291.425
        49.900
 128554222.751 7                  24463000.181
        47.900
 125523825.693 7  97629688.262 6  23490072.833    23490072.932    23490080.097
        45.200          41.100
 122003103.282 6                  22847217.097    22847217.315
        41.000
 134872076.938 6                  25665292.064
        40.500
 130106373.096 6 101381628.09545  24758411.090    24758410.5324   24758413.8394
        37.100          31.0004
 112764173.927 8  87705541.993 7  21087454.060    21087454.155    21087460.503
        51.100          45.800
 141546977.960 6                  26935447.063
        41.900
 114989120.322 8  89436029.958 7  21571658.926    21571659.223    21571665.166
        49.900          44.500
 118108987.718 7  91862591.022 6  22094722.034    22094722.011    22094730.254
        44.100          36.600
 109134835.340 8  84882719.158 7  20380146.690    20380147.308    20380152.929
        49.300          46.900
 127662831.006 6  99477651.39743  24293381.611    24293380.1454   24293383.5524
        38.400          23.0004
 25  1  1  4  2 30.0000000  0 31E34G25E03E08S31S35G13E21E13S33G12G20
                                E15R22G05G11G06G29R07R23E27R15R13E05
                                G09R24E30R14R01R08G19
 138399125.513 7                  26336428.022
        43.300
 113203776.673 7  88210821.41747  21541935.625    21541934.6464   21541938.0534
        47.000          45.8004
 139567743.772 6                  26558849.183
        41.800
 148645756.303 6                  28286346.823
        36.800
 198982141.787 7                  37865036.433
        46.100
 200940926.222 7                  38237791.989
        44.400
 131456121.762 6 102433353.05642  25015268.160    25015267.4504   25015270.9604
        37.000          16.1004
 136319962.024 7                  25940810.876
        43.800
 132280043.712 7                  25172034.827
        45.400
 202127442.802 7                  38463543.343
        45.600
 115015685.628 7  89622742.38547  21886709.524    21886708.8674   21886709.0354
        47.400          45.5004
 106567776.334 7  83039880.05146  20279147.396    20279146.0914   20279146.8354
        46.900          40.4004
 124296056.277 8                  23652714.954
        49.400
 123849610.199 7  96327609.582 6  23201164.044    23201164.358    23201170.075
        44.800          41.600
 108666929.802 8  84675579.28248  20678610.356    20678609.8744   20678609.7524
        48.800          49.3004
 112117303.225 8  87364234.80646  21335176.454    21335176.1334   21335176.6304
        48.700          38.8004
 124808632.891 6  97253624.56446  23750252.671    23750252.3364   23750256.6864
        40.600          36.9004
 120451587.610 7  93858416.32246  22921160.543    22921159.9404   22921160.7904
        45.400          41.8004
 119337521.394 8  92818137.628 7  22293234.482    22293234.749    22293241.245
        48.900          44.400
 108954714.495 8                  20367901.445    20367901.185
        49.700
 128575892.889 7                  24467123.939
        47.900
 125488695.489 7  97602364.772 6  23483498.362    23483498.681    23483505.479
        45.300          40.800
 122062183.847 6                  22858282.376    22858281.598
        40.800
 134870020.899 6                  25664900.972
        40.500
 130129483.507 6 101399636.09244  24762808.774    24762808.2074   24762811.3584
        36.600          29.3004
 112734646.763 8  87682576.441 7  21081931.511    21081932.707    21081938.425
        50.600          45.300
 141593204.715 7                  26944243.815
        42.000
 115003454.375 8  89447178.672 7  21574347.871    21574348.242    21574354.297
        49.900          44.500
 118045825.418 7  91813464.839 6  22082905.584    22082905.265    22082914.237
        43.500          37.500
 109121191.042 8  84872106.949 7  20377599.030    20377599.481    20377604.941
        49.400          46.900
 127713039.038 6  99516774.51843  24302936.664    24302935.2294   24302937.8094
        39.600          22.9004
 25  1  1  4  2 45.0000000  0 31E34G25E03E08S31S35G13E21E13S33G12G20
                                E15R22G05G11G06G29R07R23E27R15R13E05
                                G09R24E30R14R01R08G19
 138428607.780 7                  26342038.367
        43.400
 113212726.804 7  88217795.54647  21543638.516    21543637.5334   21543641.2004
        46.600          45.8004
 139535393.443 6                  26552692.969
        41.700
 148604075.663 6                  28278414.867
        36.400
 198982139.438 7                  37865038.637
        46.100
 200940954.904 7                  38237799.457
        44.600
 131407445.660 6 102395423.62742  25006005.264    25006004.5624   25006008.2004
        37.300          15.8004
 136300414.063 7                  25937090.516
        43.700
 132258765.716 7                  25167985.781
        45.400
 202127427.496 7                  38463545.543
        45.700
 115056068.934 7  89654209.88647  21894394.152    21894393.5004   21894393.7824
        47.400          45.4004
 106578370.327 7  83048135.11146  20281163.322    20281162.0174   20281162.7634
        47.100          40.4004
 124303650.685 8                  23654159.944
        49.200
 123888132.480 7  96357571.306 6  23208380.045    23208380.470    23208386.867
        43.600          41.800
 108638064.152 8  84653086.58748  20673117.221    20673116.7434   20673116.7884
        49.200          49.2004
 112139791.647 8  87381758.24946  21339455.767    21339455.4374   21339456.0444
        48.700          38.8004
 124847805.705 6  97284148.82846  23757707.505    23757707.1754   23757711.2794
        41.400          37.1004
 120406600.872 7  93823361.74346  22912600.392    22912599.7934   22912600.1734
        46.300          41.8004
 119377029.112 8  92848865.858 7  22300613.824    22300615.050    22300621.645
        48.400          44.300
 108968731.516 8                  20370521.291    20370521.721
        50.000
 128597659.929 7                  24471266.000
        47.900
 125453720.977 7  97575162.320 6  23476953.589    23476953.728    23476960.530
        45.000          40.700
 122121302.969 6                  22869352.451    22869352.348
        41.800
 134868069.934 6                  25664529.970
        40.100
 130152719.677 6 101417742.25245  24767230.436    24767229.8644   24767233.4754
        38.400          31.6004
 112705152.872 8  87659636.750 7  21076416.763    21076417.229    21076423.063
        50.500          45.500
 141639450.884 6                  26953044.156
        41.700
 115017974.956 8  89458472.441 7  21577071.610    21577071.858    21577078.472
        49.500          44.700
 117982724.469 7  91764386.364 6  22071101.390    22071101.568    22071109.431
        44.100          37.000
 109107748.935 8  84861651.976 7  20375088.939    20375089.210    20375094.728
        49.500          47.200
 127763288.879 6  99555930.17643  24312498.292    24312496.8354   24312499.9044
        38.700          22.6004
 25  1  1  4  3  0.0000000  0 31E34G25E03E08S31S35G13E21E13S33G12G20
                                E15R22G05G11G06G29R07R23E27R15R13E05
                                G09R24E30R14R01R08G19
 138458083.432 7                  26347647.313
        42.600
 113221818.783 7  88224880.21047  21545368.779    21545367.7914   21545371.3384
        47.000          46.0004
 139503089.247 6                  26546546.102
        41.500
 148562358.863 6                  28270476.451
        36.200
 198982130.552 7                  37865034.148
        45.800
 200940976.523 7                  38237801.925
        44.400
 131358728.934 6 102357462.49342  24996735.834    24996735.1414   24996737.4354
        37.300          15.8004
 136280954.512 7                  25933387.518
        43.400
 132237510.267 7                  25163941.069
        45.100
 202127405.065 7                  38463537.848
        45.300
 115096545.700 7  89685750.20847  21902096.882    21902096.2394   21902096.3044
        47.600          45.5004
 106589075.474 7  83056476.78446  20283200.603    20283199.2984   20283199.8374
        47.300          40.5004
 124311267.222 8                  23655609.485
        49.100
 123926669.104 7  96387544.210 6  23215600.168    23215600.111    23215605.998
        44.500          41.400
 108609317.298 8  84630686.45748  20667646.783    20667646.3104   20667646.4074
        49.000          49.4004
 112162320.300 8  87399313.04446  21343743.058    21343742.7284   21343743.1094
        48.800          38.9004
 124886977.209 7  97314672.07346  23765161.405    23765161.0754   23765165.4384
        42.200          37.2004
 120361636.388 7  93788324.49147  22904043.667    22904043.0644   22904043.7364
        46.300          42.0004
 119416683.378 8  92879708.091 7  22308022.123    22308022.476    22308029.545
        48.700          44.700
 108982795.381 8                  20373150.510    20373150.704
        49.800
 128619514.327 7                  24475424.920
        47.700
 125418892.879 7  97548073.787 6  23470436.528    23470436.369    23470442.470
        45.400          40.100
 122180451.044 6                  22880428.799    22880429.107
        40.900
 134866214.672 6                  25664176.262
        39.500
 130176071.711 6 101435938.66145  24771673.967    24771673.3774   24771677.4954
        37.300          30.9004
 112675682.762 8  87636715.575 7  21070905.877    21070905.874    21070912.226
        50.300          45.700
 141685706.772 6                  26961846.487
        41.600
 115032671.842 8  89469903.371 7  21579829.500    21579829.463    21579834.588
        50.100          44.200
 117919675.754 7  91715348.518 6  22059306.416    22059306.568    22059315.670
        44.300          37.400
 109094499.680 8  84851347.023 7  20372614.707    20372614.963    20372620.396
        49.700          47.000
 127813570.978 6  99595110.94943  24322067.202    24322065.7494   24322068.6314
        38.400          22.6004
 25  1  1  4  3 15.0000000  0 31E34G25E03E08S31S35G13E21E13S33G12G20
                                E15R22G05G11G06G29R07R23E27R15R13E05
                                G09R24E30R14R01R08G19
 138487564.698 7                  26353257.533
        43.500
 113231064.771 7  88232084.87447  21547128.065    21547127.0734   21547130.7654
        47.400          46.0004
 139470843.704 6                  26540409.594
        41.600
 148520618.387 6                  28262533.270
        36.300
 198982127.176 7                  37865031.858
        45.700
 200941004.045 7                  38237804.309
        44.500
 131309984.210 6 102319479.56642  24987459.336    24987458.6394   24987461.6854
        36.700          15.1004
 136261595.748 7                  25929703.813
        44.000
 132216289.556 7                  25159903.037
        45.400
 202127387.911 7                  38463532.061
        45.500
 115137127.724 7  89717372.55247  21909819.263    21909818.6154   21909818.8144
        47.300          45.5004
 106599903.920 7  83064914.53846  20285261.179    20285259.8694   20285260.4194
        47.700          40.5004
 124318918.090 8                  23657065.286
        49.200
 123965232.626 7  96417538.023 7  23222824.950    23222825.551    23222830.794
        45.500          42.200
 108580701.774 8  84608388.66248  20662201.490    20662201.0084   20662201.0264
        49.500          49.4004
 112184901.356 8  87416908.67146  21348040.075    21348039.7404   21348040.1604
        49.100          39.0004
 124926159.640 6  97345203.83246  23772617.860    23772617.5214   23772621.3454
        41.300          36.9004
 120316706.791 7  93753314.43947  22895493.849    22895493.2504   22895493.9994
        45.800          42.0004
 119456496.181 7  92910673.589 7  22315459.763    22315459.733    22315466.761
        47.900          44.600
 108996918.424 8                  20375790.633    20375790.876
        49.600
 128641468.207 7                  24479602.474
        47.600
 125384223.936 7  97521108.971 6  23463948.299    23463948.586    23463955.156
        45.300          40.700
 122239639.710 6                  22891513.098    22891512.703
        40.400
 134864467.454 6                  25663844.247
        40.200
 130199551.694 6 101454234.72145  24776141.797    24776141.2124   24776145.7634
        37.800          31.2004
 112646249.060 8  87613822.686 7  21065401.569    21065401.727    21065407.735
        50.700          45.700
 141731984.512 6                  26970653.165
        41.300
 115047557.658 8  89481481.212 7  21582621.487    21582621.661    21582627.810
        49.900          44.500
 117856692.636 7  91666361.687 6  22047524.694    22047524.290    22047533.315
        43.900          37.000
 109081455.736 8  84841201.752 7  20370178.638    20370178.984    20370184.681
        49.400          47.200
 127863897.700 6  99634326.51143  24331644.516    24331643.0724   24331645.4474
        38.300          22.0004
 25  1  1  4  3 30.0000000  0 31E34G25E03E08S31S35G13E21E13S33G12G20
                                E15R22G05G11G06G29R07R23E27R15R13E05
                                G09R24E30R14R01R08G19
 138517042.282 7                  26358866.968
        43.400
 113240455.317 7  88239402.18447  21548915.404    21548914.4124   21548917.7204
        46.800          45.7004
 139438647.780 6                  26534283.138
        41.700
 148478845.196 6                  28254584.264
        36.800
 198982120.082 7                  37865030.266
        45.900
 200941027.353 7                  38237809.201
        44.600
 131261202.722 6 102281468.04642  24978176.866    24978176.1644   24978178.9944
        37.500          14.9004
 136242328.686 7                  25926037.623
        43.700
 132195094.283 7                  25155869.676
        45.600
 202127367.860 7                  38463535.169
        45.400
 115177805.445 8  89749069.46747  21917559.937    21917559.2894   21917559.5514
        48.100          45.3004
 106610846.159 7  83073440.95946  20287343.290    20287341.9804   20287342.6174
        47.300          40.3004
 124326593.947 8                  23658526.003
        49.200
 124003813.605 7  96447545.452 6  23230051.915    23230051.992    23230057.482
        44.400          41.500
 108552208.630 8  84586186.22548  20656779.343    20656778.8654   20656778.9604
        49.300          49.2004
 112207525.472 8  87434537.85146  21352345.220    21352344.8904   21352345.3844
        48.500          38.8004
 124965343.648 6  97375736.83346  23780074.176    23780073.8464   23780077.5974
        40.900          36.7004
 120271802.972 7  93718324.46846  22886948.968    22886948.3694   22886948.9204
        46.400          41.8004
 119496457.698 8  92941754.772 7  22322924.480    22322925.455    22322931.697
        48.600          44.800
 109011091.457 8                  20378440.486    20378440.232
        49.500
 128663512.169 7                  24483797.317
        47.800
 125349705.148 7  97494260.985 6  23457488.682    23457488.786    23457495.978
        45.400          40.700
 122298858.974 6                  22902601.984    22902602.054
        40.100
 134862819.052 6                  25663530.590
        39.800
 130223150.673 6 101472623.67545  24780632.880    24780632.2864   24780636.3104
        36.500          30.2004
 112616842.539 8  87590950.952 7  21059902.010    21059902.879    21059908.592
        50.900          45.800
 141778274.572 6                  26979461.945
        41.100
 115062622.351 8  89493198.186 7  21585447.998    21585447.901    21585453.768
        50.000          44.400
 117793766.200 7  91617418.927 6  22035752.578    22035753.061    22035761.362
        44.600          37.200
 109068607.911 8  84831209.010 7  20367779.288    20367779.798    20367785.231
        49.300          47.300
 127914259.458 6  99673569.39943  24341228.231    24341226.7744   24341229.1854
        37.900          22.7004
 25  1  1  4  3 45.0000000  0 31E34G25E03E08S31S35G13E21E13S33G12G20
                                E15R22G05G11G06G29R07R23E27R15R13E05
                                G09R24E30R14R01R08G19
 138546522.459 7                  26364476.711
        43.600
 113249996.605 7  88246836.95747  21550731.032    21550730.0404   21550733.3644
        46.800          45.6004
 139406508.002 6                  26528167.269
        41.500
 148437045.763 6                  28246630.741
        36.800
 198982115.389 7                  37865029.350
        46.000
 200941053.212 7                  38237814.884
        44.600
 131212390.936 6 102243432.88542  24968887.784    24968887.0784   24968890.4414
        38.000          15.4004
 136223159.692 7                  25922389.991
        44.000
 132173930.668 7                  25151842.352
        45.600
 202127349.333 7                  38463530.595
        45.900
 115218585.036 7  89780845.75847  21925319.895    21925319.2384   21925319.6984
        47.900          45.2004
 106621908.334 7  83082060.84146  20289448.304    20289446.9944   20289447.6824
        47.500          40.2004
 124334300.989 8                  23659992.715
        49.000
 124042418.452 7  96477571.392 6  23237284.232    23237284.261    23237289.978
        44.500          41.500
 108523844.208 8  84564084.09848  20651381.589    20651381.1114   20651381.3634
        49.500          49.2004
 112230198.800 8  87452205.37346  21356659.970    21356659.6494   21356659.9774
        49.000          38.8004
 125004535.470 6  97406275.90846  23787532.009    23787531.6794   23787535.7274
        41.600          36.8004
 120226931.318 7  93683359.55346  22878409.846    22878409.2524   22878410.0664
        46.200          41.8004
 119536573.730 8  92972956.161 7  22330418.785    22330419.117    22330425.595
        48.300          44.600
 109025320.885 8                  20381100.475    20381100.458
        50.000
 128685652.369 7                  24488010.342
        47.500
 125315343.488 7  97467535.184 6  23451058.546    23451058.969    23451064.729
        45.400          40.200
 122358114.763 6                  22913699.973    22913700.089
        41.200
 134861275.766 6                  25663236.667
        40.000
 130246874.038 6 101491109.45645  24785147.635    24785147.0454   24785150.5254
        38.100          31.6004
 112587469.512 8  87568105.274 7  21054409.417    21054409.611    21054415.713
        50.900          45.600
 141824582.984 6                  26988273.773
        41.500
 115077872.257 8  89505059.220 7  21588308.347    21588308.684    21588314.882
        50.000          44.500
 117730903.120 7  91568525.447 6  22023992.196    22023992.966    22024001.406
        44.200          37.500
 109055962.889 8  84821373.999 7  20365418.545    20365418.455    20365423.861
        49.400          47.400
 127964662.321 6  99712844.28343  24350819.239    24350817.8004   24350820.8734
        38.500          22.3004
 25  1  1  4  4  0.0000000  0 31E34G25E03E08S31S35G13E21E13S33G12G20
                                E15R22G05G11G06G29R07R23E27R15R13E05
                                G09R24E30R14R01R08G19
 138576005.269 7                  26370087.500
        43.700
 113259688.544 7  88254389.11747  21552575.517    21552574.5294   21552577.7074
        47.000          45.6004
 139374424.693 6                  26522061.704
        41.900
 148395220.412 6                  28238671.108
        36.500
 198982112.675 7                  37865030.427
        45.500
 200941081.596 7                  38237822.142
        44.400
 131163549.224 6 102205374.40642  24959593.705    24959593.0264   24959596.2104
        38.100          15.5004
 136204088.998 7                  25918760.856
        43.600
 132152798.751 7                  25147820.922
        45.400
 202127333.325 7                  38463523.172
        45.100
 115259465.978 8  89812701.02647  21933099.484    21933098.8274   21933099.1284
        48.000          45.1004
 106633090.372 8  83090774.11946  20291576.387    20291575.0774   20291575.5224
        48.000          40.1004
 124342039.256 8                  23661464.996
        49.000
 124081047.302 7  96507616.034 6  23244520.262    23244520.938    23244526.427
        45.400          41.400
 108495608.622 8  84542082.35348  20646008.647    20646008.1694   20646008.2744
        49.600          49.1004
 112252921.345 8  87469911.25646  21360983.772    21360983.4424   21360983.9554
        49.200          38.7004
 125043735.139 6  97436821.10146  23794991.618    23794991.2884   23794995.2924
        41.100          36.7004
 120182092.264 7  93648420.05046  22869877.597    22869877.0074   22869877.6294
        46.500          41.7004
 119576844.316 8  93004277.735 7  22337942.401    22337942.175    22337948.470
        48.600          44.300
 109039606.857 8                  20383770.968    20383771.157
        49.700
 128707888.703 7                  24492242.016
        47.800
 125281139.186 7  97440931.817 6  23444658.165    23444658.042    23444664.773
        46.000          41.100
 122417406.405 6                  22924803.580    22924802.650
        40.400
 134859837.789 6                  25662962.944
        40.200
 130270721.654 6 101509691.88545  24789685.136    24789684.5374   24789688.3994
        38.500          30.4004
 112558129.955 8  87545285.609 7  21048923.074    21048923.225    21048928.916
        51.400          45.500
 141870909.638 6                  26997089.961
        41.900
 115093307.073 8  89517064.064 7  21591204.480    21591204.252    21591210.387
        50.100          44.700
 117668104.230 7  91519681.929 6  22012243.920    22012244.672    22012253.564
        44.100          37.600
 109043520.744 8  84811696.803 7  20363094.557    20363094.566    20363100.509
        49.000          47.300
 128015106.365 6  99752151.27143  24360418.440    24360417.0104   24360419.9934
        39.000          21.7004
 25  1  1  4  4 15.0000000  0 31E34G25E03E08S31S35G13E21E13S33G12G20
                                E15R22G05G11G06G29R07R23E27R15R13E05
                                G09R24E30R14R01R08G19
 138605484.144 7                  26375696.697
        43.100
 113269524.456 7  88262053.46747  21554446.933    21554445.9454   21554449.4394
        47.100          45.7004
 139342391.558 6                  26515965.918
        41.700
 148353362.790 6                  28230706.066
        37.400
 198982106.749 7                  37865029.971
        46.200
 200941105.944 7                  38237829.828
        44.600
 131114671.310 6 102167287.70942  24950293.279    24950292.6044   24950294.9314
        37.600          16.2004
 136185110.209 7                  25915149.349
        43.700
 132131691.928 7                  25143804.339
        45.700
 202127313.994 7                  38463512.413
        45.000
 115300441.085 7  89844629.66647  21940896.702    21940896.0504   21940896.4444
        47.900          45.2004
 106644385.459 7  83099575.48746  20293725.750    20293724.4454   20293724.8744
        47.500          40.1004
 124349802.101 8                  23662942.334
        49.000
 124119693.438 7  96537674.128 6  23251760.775    23251760.472    23251766.717
        45.200          41.500
 108467495.358 8  84520175.93148  20640658.896    20640658.4184   20640658.4834
        49.400          49.2004
 112275686.440 8  87487650.28546  21365315.980    21365315.6504   21365315.9744
        48.800          38.8004
 125082936.023 6  97467367.23746  23802451.386    23802451.0734   23802455.0674
        41.100          36.9004
 120137279.480 7  93613501.01047  22861349.927    22861349.3334   22861350.0084
        46.200          42.0004
 119617261.997 8  93035713.747 7  22345492.031    22345492.822    22345498.979
        48.700          44.500
 109053942.599 8                  20386450.934    20386451.050
        49.900
 128730214.487 7                  24496490.376
        47.900
 125247085.775 7  97414445.851 6  23438284.370    23438284.098    23438292.063
        44.800          41.300
 122476726.924 6                  22935912.275    22935912.101
        41.000
 134858498.520 6                  25662708.578
        39.800
 130294687.041 6 101528366.01244  24794245.593    24794245.0084   24794248.8594
        37.200          29.5004
 112528817.622 8  87522487.154 7  21043440.863    21043441.521    21043447.413
        50.900          45.700
 141917247.758 6                  27005907.136
        41.400
 115108920.289 8  89529207.690 7  21594133.443    21594133.031    21594139.989
        49.800          44.500
 117605363.265 7  91470883.444 6  22000507.988    22000508.098    22000516.780
        43.500          37.700
 109031275.271 8  84802172.562 7  20360808.171    20360807.979    20360813.829
        49.600          47.300
 128065584.743 6  99791485.02543  24370024.573    24370023.1204   24370026.0584
        39.500          22.6004
 25  1  1  4  4 30.0000000  0 31E34G25E03E08S31S35G13E21E13S33G12G20
                                E15R22G05G11G06G29R07R23E27R15R13E05
                                G09R24E30R14R01R08G19
 138634961.403 7                  26381306.437
        43.400
 113279506.545 7  88269831.71747  21556346.531    21556345.5484   21556348.9404
        46.600          45.7004
 139310411.238 6                  26509880.621
        41.900
 148311475.437 6                  28222735.015
        37.300
 198982098.708 7                  37865027.382
        45.600
 200941128.498 7                  38237835.641
        44.400
 131065760.036 6 102129175.04942  24940985.048    24940984.3964   24940987.7584
        38.200          16.9004
 136166225.772 7                  25911555.545
        44.200
 132110612.480 7                  25139792.817
        45.900
 202127292.326 7                  38463515.776
        45.300
 115341512.753 7  89876633.55047  21948712.369    21948711.7124   21948712.1474
        47.400          45.3004
 106655795.668 7  83108466.56246  20295896.886    20295895.5764   20295896.1204
        47.700          40.2004
 124357591.814 8                  23664424.689
        49.300
 124158359.350 7  96567747.612 6  23259003.019    23259003.718    23259009.843
        45.100          41.900
 108439507.165 8  84498366.96048  20635332.796    20635332.3234   20635332.4774
        48.800          49.3004
 112298496.351 8  87505424.23946  21369656.495    21369656.1654   21369656.5734
        48.500          38.8004
 125122140.470 6  97497916.14546  23809912.311    23809912.0164   23809915.2324
        40.900          36.7004
 120092495.500 7  93578604.41647  22852827.855    22852827.2524   22852827.9584
        45.800          42.0004
 119657828.910 8  93067265.802 7  22353070.431    22353070.412    22353077.463
        48.500          44.500
 109068330.719 8                  20389140.771    20389140.807
        50.000
 128752631.904 8                  24500756.254
        48.000
 125213186.116 7  97388079.420 6  23431940.885    23431940.569    23431948.257
        44.900          40.500
 122536078.013 6                  22947026.552    22947026.167
        40.500
 134857260.389 6                  25662472.710
        40.000
 130318772.492 5 101547133.72744  24798829.337    24798828.7434   24798832.2554
        35.100          28.6004
 112499534.656 8  87499711.518 7  21037965.046    21037965.273    21037971.701
        50.600          46.200
 141963599.408 6                  27014727.801
        41.100
 115124713.351 8  89541491.195 7  21597095.774    21597095.637    21597102.211
        50.100          44.700
 117542683.265 7  91422132.361 6  21988782.785    21988782.552    21988790.701
        43.600          37.600
 109019228.799 8  84792803.096 7  20358558.199    20358558.422    20358564.030
        49.100          47.500
 128116099.821 6  99830847.42543  24379636.636    24379635.1924   24379638.6434
        38.500          22.4004
 25  1  1  4  4 45.0000000  0 31E34G25E03E08S31S35G13E21E13S33G12G20
                                E15R22G05G11G06G29R07R23E27R15R13E05
                                G09R24E30R14R01R08G19
 138664443.138 7                  26386916.357
        43.400
 113289640.740 7  88277728.49747  21558275.043    21558274.0604   21558277.3544
        46.700          45.5004
 139278489.987 7                  26503805.806
        42.100
 148269564.753 6                  28214759.476
        37.200
 198982095.152 7                  37865027.123
        45.800
 200941155.769 7                  38237836.236
        44.600
 131016821.922 6 102091041.47742  24931673.166    24931672.5234   24931675.3944
        38.100          16.1004
 136147441.922 7                  25907981.094
        44.000
 132089566.478 7                  25135787.953
        45.400
 202127275.789 7                  38463514.193
        45.500
 115382686.802 7  89908717.21447  21956547.690    21956547.0294   21956547.3374
        47.300          45.1004
 106667327.056 7  83117452.06546  20298091.159    20298089.8454   20298090.4394
        47.500          40.0004
 124365414.428 8                  23665913.152
        49.100
 124197051.238 7  96597841.275 6  23266252.706    23266252.603    23266258.061
        44.700          41.800
 108411650.252 8  84476660.29348  20630032.135    20630031.6664   20630031.4674
        48.900          49.2004
 112321357.061 8  87523237.78146  21374006.626    21374006.2964   21374006.8234
        48.600          38.7004
 125161354.537 6  97528472.55846  23817373.860    23817373.5654   23817377.2384
        40.800          36.3004
 120047746.911 7  93543735.39146  22844312.372    22844311.7644   22844312.5044
        46.000          41.9004
 119698550.716 8  93098938.307 7  22360677.881    22360678.296    22360684.453
        48.600          44.900
 109082777.363 8                  20391841.430    20391841.483
        50.200
 128775146.938 7                  24505040.671
        47.800
 125179446.863 7  97361837.705 6  23425627.385    23425627.903    23425633.910
        46.700          40.500
 122595465.362 6                  22958148.652    22958147.709
        40.600
 134856129.551 6                  25662257.698
        39.800
 130342984.240 6 101565999.98544  24803436.572    24803435.9784   24803439.9714
        36.800          29.9004
 112470287.482 8  87476963.721 7  21032495.304    21032495.995    21032502.013
        50.200          46.100
 142009970.541 6                  27023551.964
        41.400
 115140692.642 8  89553919.502 7  21600093.824    21600093.811    21600099.553
        50.100          44.400
 117480070.945 7  91373433.916 6  21977069.538    21977069.042    21977078.117
        43.400          37.400
 109007387.829 8  84783593.476 7  20356346.827    20356347.035    20356352.920
        48.600          47.200
 128166657.165 6  99870242.75343  24389258.068    24389256.6064   24389259.4824
        38.500          22.4004
 25  1  1  4  5  0.0000000  0 31E34G25E03E08S31S35G13E21E13S33G12G20
                                E15R22G05G11G06G29R07R23E27R15R13E05
                                G09R24E30R14R01R08G19
 138693923.508 7                  26392526.168
        42.900
 113299921.101 7  88285739.16947  21560231.444    21560230.4654   21560233.6264
        47.000          45.7004
 139246622.315 7                  26497741.886
        42.200
 148227625.105 6                  28206779.174
        36.200
 198982090.349 7                  37865024.118
        45.800
 200941181.376 7                  38237843.547
        44.700
 130967851.362 6 102052882.60542  24922353.552    24922352.9004   24922356.6444
        37.900          16.5004
 136128752.991 7                  25904424.887
        43.800
 132068548.081 7                  25131788.487
        45.500
 202127257.471 7                  38463502.929
        45.200
 115423956.923 7  89940875.73747  21964401.057    21964400.3964   21964400.7854
        47.200          45.2004
 106678973.508 7  83126527.22446  20300307.439    20300306.1204   20300306.6744
        47.800          40.1004
 124373264.069 8                  23667407.034
        48.900
 124235763.162 7  96627950.535 6  23273504.018    23273504.578    23273510.501
        44.700          41.200
 108383918.398 8  84455051.07148  20624754.813    20624754.3444   20624754.2504
        49.200          49.3004
 112344262.692 8  87541086.31946  21378365.493    21378365.1544   21378365.6584
        48.700          38.8004
 125200572.323 6  97559031.86546  23824837.103    23824836.7824   23824840.3274
        41.300          36.5004
 120003027.702 7  93508889.26647  22835802.548    22835801.9314   22835802.6624
        45.400          42.0004
 119739421.271 8  93130726.517 7  22368312.503    22368312.854    22368319.422
        48.900          44.700
 109097276.708 8                  20394552.249    20394552.020
        50.100
 128797753.619 7                  24509342.867
        47.800
 125145862.187 7  97335716.274 6  23419342.750    23419342.314    23419349.367
        45.500          40.400
 122654882.442 6                  22969274.582    22969274.358
        40.500
 134855100.234 6                  25662061.518
        40.400
 130367315.798 6 101584959.57145  24808067.081    24808066.5144   24808070.2564
        36.900          30.8004
 112441070.226 8  87454239.203 7  21027031.827    21027031.538    21027038.544
        50.200          46.100
 142056355.025 6                  27032378.963
        41.500
 115156851.598 8  89566487.576 7  21603125.152    21603125.133    21603130.843
        49.500          44.400
 117417520.964 7  91324783.973 6  21965367.727    21965368.018    21965376.825
        44.000          37.600
 108995746.558 8  84774539.161 7  20354172.977    20354173.205    20354179.028
        49.300          47.400
 128217251.150 6  99909666.57743  24398885.646    24398884.2074   24398886.9394
        37.900          22.0004
 25  1  1  4  5 15.0000000  0 31E34G25E03E08S31S35G13E21E13S33G12G20
                                E15R22G05G11G06G29R07R23E27R15R13E05
                                G09R24E30R14R01R08G19
 138723402.845 7                  26398135.671
        43.300
 113310347.886 7  88293863.93647  21562215.264    21562214.2814   21562217.7794
        47.000          45.7004
 139214808.807 7                  26491687.624
        42.200
 148185657.042 6                  28198792.677
        36.600
 198982084.961 7                  37865028.411
        46.100
 200941206.325 7                  38237844.102
        44.600
 130918849.086 6 102014699.01242  24913029.009    24913028.3574   24913031.9214
        37.600          16.6004
 136110159.500 7                  25900886.515
        43.800
 132047557.610 7                  25127794.311
        45.600
 202127237.908 7                  38463505.102
        45.500
 115465323.036 7  89973109.06047  21972272.864    21972272.2034   21972272.5314
        47.400          45.3004
 106690735.263 7  83135692.23446  20302545.692    20302544.3734   20302544.8194
        47.400          40.0004
 124381141.036 8                  23668905.731
        48.800
 124274495.629 7  96658075.733 6  23280759.753    23280760.206    23280766.039
        45.100          41.300
 108356312.702 8  84433540.15448  20619501.523    20619501.0544   20619501.0684
        49.300          49.4004
 112367213.505 8  87558970.06946  21382732.917    21382732.5694   21382733.0654
        48.700          38.7004
 125239794.157 6  97589594.32446  23832300.764    23832300.4254   23832304.1094
        40.700          36.6004
 119958338.705 7  93474066.68447  22827298.761    22827298.1404   22827298.7904
        46.300          42.1004
 119780440.313 8  93162630.245 7  22375974.853    22375975.386    22375981.780
        48.600          44.300
 109111829.056 8                  20397272.311    20397272.354
        50.100
 128820452.191 7                  24513662.145
        47.700
 125112433.070 7  97309715.849 6  23413086.556    23413086.769    23413094.421
        45.800          41.100
 122714329.099 6                  22980407.767    22980407.133
        40.100
 134854172.828 6                  25661884.895
        40.000
 130391767.399 6 101604012.57845  24812720.484    24812719.9084   24812723.5254
        36.000          30.1004
 112411883.456 8  87431538.387 7  21021573.647    21021574.393    21021580.222
        50.600          45.800
 142102753.091 6                  27041208.002
        41.200
 115173190.516 8  89579195.631 7  21606190.615    21606190.242    21606196.601
        49.000          44.500
 117355034.263 7  91276183.215 6  21953678.951    21953678.611    21953687.637
        44.300          38.100
 108984305.466 8  84765640.567 7  20352036.693    20352036.642    20352042.285
        49.000          47.300
 128267881.977 6  99949119.08343  24408520.879    24408519.4404   24408521.8464
        37.700          21.3004
 25  1  1  4  5 30.0000000  0 31E34G25E03E08S31S35G13E21E13S33G12G20
                                E15R22G05G11G06G29R07R23E27R15R13E05
                                G09R24E30R14R01R08G19
 138752883.558 7                  26403746.216
        43.300
 113320923.303 7  88302104.52247  21564227.854    21564226.8624   21564230.2194
        47.000          45.7004
 139183052.086 6                  26485644.825
        41.400
 148143663.248 6                  28190801.158
        36.800
 198982080.165 7                  37865021.936
        46.000
 200941232.106 7                  38237849.360
        44.600
 130869817.766 6 101976492.80542  24903699.059    24903698.3934   24903701.5494
        38.300          16.9004
 136091663.964 7                  25897366.900
        44.000
 132026597.411 7                  25123805.596
        45.500
 202127220.718 7                  38463501.757
        45.800
 115506787.237 7  90005418.81547  21980163.238    21980162.5774   21980162.9294
        47.100          45.3004
 106702614.673 7  83144948.91746  20304806.313    20304804.9994   20304805.3764
        47.500          40.0004
 124389047.656 8                  23670410.498
        48.800
 124313251.052 7  96688218.793 6  23288019.928    23288020.243    23288026.693
        44.600          41.600
 108328835.547 8  84412129.39648  20614272.602    20614272.1294   20614272.3424
        49.200          49.5004
 112390211.809 8  87576890.81746  21387109.166    21387108.8184   21387109.4684
        48.500          38.7004
 125279022.435 6  97620161.81346  23839765.398    23839765.0774   23839769.0004
        40.700          36.4004
 119913682.522 7  93439269.67347  22818800.874    22818800.2484   22818800.9594
        45.900          42.1004
 119821609.886 8  93194651.005 7  22383666.395    22383666.201    22383673.029
        48.400          44.200
 109126437.174 8                  20400003.274    20400003.214
        49.900
 128843244.887 7                  24517999.425
        47.600
 125079162.101 7  97283838.379 6  23406860.868    23406860.450    23406867.279
        45.500          40.600
 122773807.258 6                  22991546.881    22991546.307
        41.000
 134853349.785 6                  25661728.222
        39.800
 130416341.710 6 101623161.38244  24817396.522    24817395.9414   24817399.7244
        37.000          29.7004
 112382729.458 8  87408863.052 7  21016121.660    21016122.023    21016128.491
        50.500          46.100
 142149166.881 6                  27050040.034
        41.100
 115189711.752 8  89592045.470 7  21609289.721    21609289.672    21609295.445
        49.700          44.700
 117292613.810 7  91227634.028 6  21942001.447    21942001.362    21942010.312
        43.500          37.800
 108973067.342 8  84756899.797 7  20349937.692    20349937.971    20349943.713
        49.200          47.600
 128318551.904 6  99988602.07643  24418162.631    24418161.1784   24418163.7464
        38.500          21.2004
 25  1  1  4  5 45.0000000  0 32E34G25E03E08S31S35G13E21E13S33G12G20
                                E15R22G05G11G18G06G29R07R23E27R15R13
                                E05G09R24E30R14R01R08G19
 138782361.669 7                  26409355.557
        43.100
 113331643.302 7  88310457.76447  21566267.903    21566266.9154   21566270.1474
        46.900          45.8004
 139151348.514 7                  26479611.482
        42.100
 148101639.979 6                  28182804.553
        36.300
 198982073.221 7                  37865024.476
        45.800
 200941255.782 7                  38237854.064
        44.500
 130820753.827 6 101938261.17442  24894361.803    24894361.1334   24894364.8954
        38.100          15.7004
 136073262.575 7                  25893865.541
        44.400
 132005663.496 7                  25119821.910
        45.900
 202127199.941 7                  38463497.026
        45.200
 115548345.109 7  90037801.55947  21988071.093    21988070.4324   21988071.1324
        47.000          45.3004
 106714607.515 7  83154293.99546  20307088.415    20307087.0964   20307087.5364
        47.600          40.1004
 124396979.938 8                  23671919.845
        48.900
 124352025.447 7  96718376.623 6  23295283.696    23295284.590    23295290.370
        44.500          41.600
 108301483.215 8  84390815.90448  20609067.941    20609067.4724   20609067.3644
        49.400          49.6004
 112413253.556 8  87594845.42046  21391494.217    21391493.8694   21391494.1854
        48.600          38.8004
 136964240.258 5                  26063427.319
        33.300
 125318253.143 6  97650731.18846  23847231.016    23847230.7174   23847234.3834
        40.300          36.4004
 119869055.554 7  93404495.42647  22810308.682    22810308.0434   22810308.5294
        45.700          42.2004
 119862925.699 8  93226785.553 7  22391383.606    22391384.003    22391390.893
        48.400          44.500
 109141096.768 8                  20402743.476    20402743.630
        50.000
 128866127.637 7                  24522353.893
        47.700
 125046045.636 7  97258081.125 6  23400663.284    23400663.170    23400670.442
        45.300          40.600
 122833312.421 6                  23002688.929    23002688.410
        40.000
 134852627.198 6                  25661590.915
        40.300
 130441034.249 6 101642402.34345  24822095.883    24822095.2934   24822098.6974
        37.200          31.0004
 112353604.510 8  87386210.325 7  21010675.063    21010675.542    21010681.738
        50.700          46.000
 142195592.213 6                  27058874.489
        41.600
 115206410.819 8  89605033.622 7  21612422.592    21612422.267    21612428.344
        49.700          44.700
 117230256.196 7  91179133.704 6  21930336.299    21930336.173    21930344.604
        43.100          37.900
 108962028.091 8  84748313.733 7  20347875.781    20347876.655    20347882.286
        49.200          47.400
 128369256.757 6 100028112.29443  24427811.345    24427809.9014   24427812.8014
        38.700          22.2004
 25  1  1  4  6  0.0000000  0 32E34G25E03E08S31S35G13E21E13S33G12G20
                                E15R22G05G11G18G06G29R07R23E27R15R13
                                E05G09R24E30R14R01R08G19
 138811842.219 7                  26414965.563
        43.200
 113342512.742 7  88318927.46247  21568336.165    21568335.1774   21568338.5314
        47.200          46.0004
 139119703.365 7                  26473589.541
        42.000
 148059592.497 6                  28174802.827
        36.000
 198982069.002 7                  37865018.819
        45.500
 200941281.576 7                  38237862.440
        44.400
 130771662.864 6 101900008.49142  24885020.499    24885019.8424   24885023.0724
        38.300          17.3004
 136054960.525 7                  25890382.644
        44.000
 131984760.860 7                  25115844.512
        45.300
 202127181.812 7                  38463495.667
        45.500
 115590001.436 7  90070261.02247  21995998.504    21995997.8524   21995998.0444
        47.300          45.4004
 106726718.569 7  83163731.17846  20309393.084    20309391.7654   20309392.1704
        47.500          40.2004
 124404942.860 8                  23673435.292
        48.800
 124390823.970 7  96748553.267 6  23302552.211    23302552.171    23302558.340
        43.200          41.300
 108274261.020 8  84369603.82048  20603887.556    20603887.0784   20603887.1514
        49.200          49.9004
 112436343.719 8  87612837.75146  21395888.058    21395887.7194   21395888.1404
        48.500          39.0004
 136923475.170 6 106693614.65642  26055670.359    26055670.5464   26055670.7794
        36.800          12.7004
 125357491.287 6  97681306.36646  23854697.622    23854697.3274   23854701.2774
        40.400          36.6004
 119824462.924 7  93369747.94147  22801823.090    22801822.4514   22801822.9684
        46.000          42.4004
 119904392.106 8  93259037.217 7  22399130.436    22399130.566    22399137.295
        48.300          44.400
 109155813.184 8                  20405494.899    20405495.010
        50.400
 128889105.314 8                  24526726.457
        48.000
 125013089.390 7  97232448.494 6  23394494.473    23394494.379    23394502.242
        43.100          39.600
 122892848.867 6                  23013839.412    23013838.048
        40.800
 134852010.146 6                  25661473.470
        40.100
 130465849.713 5 101661738.96945  24826817.669    24826817.0794   24826820.9594
        35.400          31.0004
 112324513.618 8  87363584.082 7  21005234.770    21005235.307    21005241.924
        50.400          46.000
 142242033.948 6                  27067712.107
        41.500
 115223292.723 8  89618163.984 7  21615589.241    21615588.967    21615594.906
        49.600          44.700
 117167966.958 7  91130686.542 6  21918683.405    21918683.286    21918692.960
        43.100          38.300
 108951193.250 8  84739886.657 7  20345852.997    20345853.036    20345858.872
        48.900          47.200
 128420001.268 6 100067653.39243  24437467.843    24437466.4134   24437469.0824
        38.000          21.3004
 25  1  1  4  6 15.0000000  0 32E34G25E03E08S31S35G13E21E13S33G12G20
                                E15R22G05G11G18G06G29R07R23E27R15R13
                                E05G09R24E30R14R01R08G19
 138841321.136 7                  26420575.116
        42.800
 113353527.461 7  88327510.35647  21570432.082    21570431.0944   21570434.5644
        46.900          46.0004
 139088112.831 6                  26467578.240
        41.600
 148017516.989 6                  28166796.714
        36.200
 198982062.959 7                  37865018.555
        45.800
 200941306.421 7                  38237863.741
        44.400
 130722541.034 6 101861731.74742  24875672.748    24875672.1094   24875675.2794
        38.000          16.7004
 136036753.887 7                  25886917.894
        44.200
 131963885.439 7                  25111872.065
        45.500
 202127162.434 7                  38463489.930
        45.500
 115631751.775 7  90102793.74147  22003942.771    22003942.1234   22003942.8704
        47.400          45.4004
 106738943.760 7  83173257.30546  20311719.618    20311718.2954   20311718.4964
        47.500          40.1004
 124412932.325 8                  23674955.709
        48.900
 124429642.588 7  96778745.500 6  23309824.435    23309824.590    23309830.106
        44.200          40.800
 108247164.762 8  84348489.86348  20598731.505    20598731.0364   20598730.8914
        49.000          49.9004
 112459478.180 8  87630864.60146  21400290.399    21400290.0554   21400290.4974
        48.400          39.0004
 136882715.514 6 106661853.89442  26047914.236    26047914.0584   26047915.1744
        36.600          16.9004
 125396732.787 6  97711884.15746  23862165.524    23862165.2524   23862168.6954
        39.800          36.2004
 119779900.905 7  93335024.30147  22793342.952    22793342.3044   22793343.0814
        45.600          42.4004
 119946004.708 8  93291402.619 7  22406903.654    22406904.187    22406910.831
        48.800          44.500
 109170582.462 8                  20408255.910    20408255.839
        50.100
 128912173.762 7                  24531116.168
        47.700
 124980289.435 7  97206937.374 6  23388357.679    23388357.301    23388364.743
        44.800          40.100
 122952412.369 6                  23024992.765    23024992.971
        40.300
 134851494.617 6                  25661375.543
        40.400
 130490784.204 6 101681168.41944  24831562.764    24831562.1884   24831565.7624
        36.600          29.7004
 112295452.934 8  87340981.346 7  20999800.534    20999801.195    20999807.297
        50.600          46.100
 142288487.820 6                  27076551.901
        41.000
 115240352.675 8  89631432.844 7  21618789.423    21618789.357    21618796.046
        49.100          44.700
 117105742.723 7  91082289.920 6  21907042.822    21907042.807    21907051.659
        44.300          37.700
 108940558.732 8  84731615.373 7  20343867.196    20343867.359    20343872.859
        49.100          47.400
 128470781.600 6 100107222.41643  24447131.100    24447129.6794   24447132.0174
        38.300          21.6004
 25  1  1  4  6 30.0000000  0 32E34G25E03E08S31S35G13E21E13S33G12G20
                                E15R22G05G11G18G06G29R07R23E27R15R13
                                E05G09R24E30R14R01R08G19
 138870800.726 7                  26426184.786
        43.000
 113364689.573 7  88336208.10547  21572556.242    21572555.2594   21572558.6574
        47.200          46.0004
 139056579.502 7                  26461577.571
        42.200
 147975416.013 5                  28158785.669
        35.900
 198982057.408 7                  37865019.651
        45.800
 200941331.442 7                  38237870.551
        44.500
 130673390.963 6 101823433.00042  24866320.093    24866319.4544   24866322.0984
        38.100          17.2004
 136018645.093 7                  25883471.806
        44.100
 131943039.459 7                  25107904.955
        45.900
 202127143.981 7                  38463488.052
        45.700
 115673598.021 7  90135401.19547  22011905.893    22011905.2364   22011906.0204
        47.300          45.3004
 106751285.106 7  83182873.93946  20314067.969    20314066.6464   20314066.9524
        47.800          40.1004
 124420950.530 8                  23676481.406
        49.000
 124468483.627 7  96808955.182 6  23317100.603    23317100.975    23317107.121
        44.500          41.600
 108220197.242 8  84327476.22548  20593599.664    20593599.1954   20593599.1594
        49.400          49.9004
 112482659.105 8  87648927.65746  21404701.553    21404701.2144   21404701.7044
        48.600          39.0004
 136841963.412 6 106630099.08142  26040159.613    26040159.5374   26040160.1874
        36.100          12.7004
 125435979.896 6  97742466.30446  23869634.229    23869633.9664   23869637.1904
        39.600          36.1004
 119735372.053 7  93300326.50547  22784869.482    22784868.8394   22784869.4284
        46.100          42.5004
 119987765.711 8  93323883.424 7  22414705.006    22414705.576    22414712.332
        48.500          44.500
 109185406.861 8                  20411026.660    20411027.020
        49.700
 128935335.096 7                  24535523.649
        47.700
 124947648.246 7  97181549.782 6  23382249.689    23382250.227    23382256.462
        45.900          40.800
 123012004.381 6                  23036152.949    23036152.437
        40.100
 134851082.963 6                  25661297.051
        40.400
 130515840.155 6 101700692.62045  24836331.053    24836330.4684   24836334.1574
        37.700          30.5004
 112266424.757 8  87318403.890 7  20994372.197    20994372.489    20994378.886
        50.200          46.100
 142334955.871 6                  27085394.789
        41.000
 115257592.891 8  89644841.906 7  21622023.705    21622023.833    21622030.300
        50.000          44.800
 117043586.349 7  91033946.136 6  21895415.037    21895415.399    21895424.997
        43.800          38.200
 108930127.011 8  84723501.851 7  20341918.867    20341919.198    20341924.926
        48.800          47.500
 128521599.971 6 100146821.08343  24456800.811    24456799.3854   24456802.4914
        37.600          21.4004
 25  1  1  4  6 45.0000000  0 32E34G25E03E08S31S35G13E21E13S33G12G20
                                E15R22G05G11G18G06G29R07R23E27R15R13
                                E05G09R24E30R14R01R08G19
 138900282.041 7                  26431794.998
        42.500
 113376000.043 7  88345021.46447  21574708.363    21574707.3714   21574710.9654
        47.300          45.9004
 139025104.671 7                  26455588.494
        42.200
 147933290.872 6                  28150769.082
        36.300
 198982054.658 7                  37865017.983
        46.000
 200941358.060 7                  38237873.829
        44.500
 130624213.987 6 101785113.27942  24856961.638    24856961.0124   24856963.9094
        37.600          15.7004
 136000635.377 7                  25880044.739
        44.300
 131922224.032 7                  25103943.762
        46.000
 202127127.022 7                  38463482.592
        45.600
 115715540.995 7  90168084.01847  22019887.730    22019887.0694   22019887.5224
        47.200          45.1004
 106763743.515 7  83192581.79646  20316438.771    20316437.4524   20316437.6954
        47.700          40.1004
 124428998.560 8                  23678012.854
        49.000
 124507348.204 7  96839183.143 6  23324380.773    23324380.607    23324387.473
        44.200          41.400
 108193359.483 8  84306563.70148  20588492.577    20588492.1084   20588492.0974
        49.400          49.9004
 112505887.533 8  87667027.72846  21409121.770    21409121.4224   21409121.9074
        49.000          38.8004
 136801220.219 5 106598351.19342  26032406.665    26032406.4914   26032407.0464
        34.900          12.2004
 125475233.695 6  97773053.68246  23877103.629    23877103.3844   23877106.8474
        40.500          36.0004
 119690877.688 7  93265655.57847  22776402.417    22776401.7784   22776402.5544
        46.000          42.4004
 120029675.482 8  93356479.907 7  22422533.800    22422534.336    22422541.499
        48.300          44.700
 109200287.625 8                  20413808.990    20413808.781
        49.800
 128958590.294 7                  24539949.027
        47.900
 124915167.366 7  97156286.826 6  23376170.809    23376171.521    23376178.489
        45.300          40.600
 123071625.465 6                  23047318.210    23047317.216
        40.000
 134850776.320 6                  25661238.764
        40.400
 130541017.979 6 101720311.91445  24841120.849    24841120.2414   24841124.9864
        37.100          31.7004
 112237430.281 8  87295852.632 7  20988949.928    20988950.052    20988956.610
        50.000          46.200
 142381438.985 6                  27094240.200
        40.800
 115275014.383 8  89658391.934 7  21625292.154    21625291.995    21625298.501
        50.100          44.900
 116981499.585 7  90985656.434 6  21883800.783    21883800.574    21883810.231
        44.000          38.000
 108919899.457 8  84715547.069 7  20340009.210    20340009.341    20340015.029
        49.600          47.500
 128572456.895 6 100186449.79143  24466478.947    24466477.5304   24466480.5314
        37.500          21.1004
 25  1  1  4  7  0.0000000  0 32E34G25E03E08S31S35G13E21E13S33G12G20
                                E15R22G05G11G18G06G29R07R23E27R15R13
                                E05G09R24E30R14R01R08G19
 138929758.791 7                  26437404.093
        42.400
 113387452.424 7  88353945.39947  21576887.655    21576886.6674   21576890.2464
        47.300          45.7004
 138993682.301 7                  26449608.692
        42.400
 147891135.448 6                  28142746.750
        36.500
 198982046.834 7                  37865017.759
        46.000
 200941380.877 7                  38237874.831
        44.400
 130575004.219 6 101746767.99942  24847597.247    24847596.6214   24847599.6334
        38.400          16.3004
 135982718.576 7                  25876635.273
        43.900
 131901432.738 7                  25099987.169
        45.700
 202127105.819 7                  38463478.536
        45.700
 115757574.042 7  90200837.03147  22027886.260    22027885.6034   22027886.1194
        47.100          44.9004
 106776312.488 8  83202375.80146  20318830.506    20318829.1834   20318829.5124
        48.200          39.8004
 124437070.025 8                  23679548.801
        48.900
 124546229.967 7  96869424.465 6  23331666.200    23331666.704    23331671.183
        45.300          41.500
 108166645.277 8  84285747.45148  20583408.987    20583408.5184   20583408.5504
        49.700          49.8004
 112529157.078 8  87685159.84046  21413549.647    21413549.2764   21413549.9584
        49.000          38.6004
 136760479.584 6 106566605.25242  26024654.040    26024653.9204   26024654.5894
        39.100          13.6004
 125514487.809 6  97803641.28845  23884572.834    23884572.5804   23884576.6574
        40.100          35.5004
 119646411.755 7  93231006.80847  22767940.819    22767940.1624   22767940.9614
        46.500          42.3004
 120071727.313 8  93389186.917 7  22430389.687    22430389.815    22430396.919
        48.100          44.200
 109215218.251 8                  20416599.462    20416599.762
        49.300
 128981932.900 7                  24544390.845
        47.700
 124882840.947 7  97131144.016 6  23370121.195    23370121.591    23370128.250
        45.500          39.700
 123131268.760 6                  23058486.635    23058486.841
        40.000
 134850568.448 6                  25661199.073
        40.300
 130566310.761 6 101740020.49045  24845934.782    24845934.1794   24845937.7494
        37.700          30.4004
 112208463.249 8  87273322.720 7  20983532.981    20983533.441    20983539.521
        50.800          46.000
 142427930.652 6                  27103087.290
        41.100
 115292610.597 8  89672077.872 7  21628592.766    21628592.942    21628599.153
        49.300          44.900
 116919476.275 7  90937416.176 6  21872198.471    21872198.104    21872206.701
        43.700          38.000
 108909869.828 8  84707746.274 7  20338136.080    20338136.331    20338141.925
        49.200          47.400
 128623346.389 6 100226103.90843  24476163.407    24476161.9864   24476164.2194
        37.600          20.9004
 25  1  1  4  7 15.0000000  0 32E34G25E03E08S31S35G13E21E13S33G12G20
                                E15R22G05G11G18G06G29R07R23E27R15R13
                                E05G09R24E30R14R01R08G19
 138959236.729 7                  26443013.872
        42.700
 113399052.345 7  88362984.29747  21579095.202    21579094.2194   21579097.6094
        47.000          45.8004
 138962318.463 7                  26443640.202
        42.100
 147848955.847 5                  28134721.051
        35.900
 198982040.480 7                  37865017.460
        46.100
 200941404.811 7                  38237885.366
        44.800
 130525767.904 6 101708402.04542  24838228.244    24838227.6504   24838230.2294
        38.900          16.7004
 135964900.622 7                  25873244.721
        44.100
 131880671.378 7                  25096036.877
        45.500
 202127086.204 7                  38463477.436
        45.500
 115799702.588 7  90233664.45647  22035903.028    22035902.3854   22035902.8894
        46.600          44.8004
 106788997.705 8  83212260.38946  20321244.424    20321243.0964   20321243.4064
        48.200          39.9004
 124445170.688 8                  23681090.525
        48.600
 124585134.810 7  96899683.768 6  23338952.575    23338953.195    23338958.286
        44.100          40.700
 108140060.453 8  84265032.01748  20578350.033    20578349.5644   20578349.6254
        49.500          49.9004
 112552473.428 8  87703328.42046  21417986.788    21417986.4174   21417986.9664
        48.700          38.7004
 136719747.297 6 106534865.80842  26016901.845    26016901.6624   26016903.4614
        36.900          14.0004
 125553747.995 6  97834233.64145  23892044.295    23892044.0234   23892047.3794
        41.100          35.7004
 119601980.361 7  93196384.95247  22759486.075    22759485.4144   22759485.8164
        46.000          42.5004
 120113926.662 8  93422008.643 7  22438273.305    22438273.205    22438279.670
        48.800          44.200
 109230204.809 8                  20419401.634    20419401.390
        49.300
 129005368.569 7                  24548850.622
        47.500
 124850674.994 7  97106126.050 6  23364102.553    23364102.675    23364109.352
        46.000          39.300
 123190939.659 6                  23069661.738    23069661.341
        40.600
 134850465.165 6                  25661179.558
        40.300
 130591724.690 6 101759823.50444  24850770.582    24850769.9654   24850773.8494
        36.300          29.3004
 112179529.567 8  87250818.764 7  20978122.403    20978122.438    20978128.911
        49.800          46.200
 142474436.446 6                  27111936.665
        41.200
 115310386.876 8  89685903.869 7  21631927.653    21631927.927    21631934.009
        49.700          44.800
 116857523.171 7  90889230.459 6  21860608.275    21860608.191    21860617.404
        44.000          38.600
 108900044.053 8  84700104.018 7  20336300.940    20336301.570    20336306.874
        49.200          47.400
 128674274.024 6 100265787.76543  24485854.064    24485852.6514   24485855.2134
        37.400          19.3004
 25  1  1  4  7 30.0000000  0 32E34G25E03E08S31S35G13E21E13S33G12G20
                                E15R22G05G11G18G06G29R07R23E27R15R13
                                E05G09R24E30R14R01R08G19
 138988716.959 7                  26448623.422
        42.600
 113410800.746 7  88372138.89347  21581331.164    21581330.1814   21581333.2554
        47.600          45.8004
 138931014.471 7                  26437683.101
        42.200
 147806753.327 5                  28126690.373
        35.500
 198982036.760 7                  37865019.199
        46.300
 200941430.864 7                  38237891.733
        45.200
 130476506.537 6 101670016.58242  24828853.750    24828853.1424   24828856.4034
        38.300          16.5004
 135947182.718 7                  25869873.007
        44.100
 131859940.994 7                  25092091.802
        45.900
 202127068.892 7                  38463473.944
        46.100
 115841927.192 7  90266566.73547  22043938.068    22043937.4294   22043937.9744
        47.100          44.7004
 106801800.039 7  83222236.23646  20323680.598    20323679.2704   20323679.5864
        47.700          39.8004
 124453301.539 8                  23682637.569
        48.700
 124624063.885 7  96929961.906 6  23346245.772    23346245.857    23346252.214
        44.400          41.100
 108113606.342 8  84244418.44048  20573315.922    20573315.4494   20573315.5804
        49.900          49.9004
 112575837.579 8  87721534.24646  21422432.845    21422432.4744   21422433.0024
        48.500          38.6004
 136679024.314 5 106503133.65342  26009152.688    26009152.4564   26009153.9784
        32.100          12.0004
 125593015.308 6  97864831.53745  23899516.118    23899515.8284   23899519.9434
        40.000          35.6004
 119557584.813 7  93161791.03347  22751037.746    22751037.0944   22751037.6424
        46.100          42.5004
 120156274.286 8  93454945.719 7  22446183.308    22446184.279    22446191.111
        48.600          44.400
 109245248.456 8                  20422213.990    20422213.853
        49.700
 129028898.221 7                  24553328.288
        47.400
 124818670.921 7  97081234.006 6  23358112.961    23358112.972    23358119.448
        45.200          38.900
 123250638.867 6                  23080841.304    23080840.813
        40.300
 134850467.556 6                  25661179.827
        40.000
 130617260.586 6 101779721.55645  24855630.105    24855629.5024   24855632.8934
        36.300          30.5004
 112150630.343 8  87228341.602 7  20972717.981    20972718.093    20972724.513
        50.500          46.100
 142520957.215 6                  27120789.448
        40.900
 115328343.823 8  89699870.393 7  21635296.311    21635296.700    21635302.876
        49.900          44.900
 116795641.732 7  90841100.491 6  21849033.017    21849031.987    21849041.335
        43.500          37.900
 108890423.340 8  84692621.260 7  20334504.553    20334504.792    20334510.207
        49.300          47.200
 128725240.596 6 100305501.96743  24495552.908    24495551.4874   24495553.8814
        36.900          19.5004
 25  1  1  4  7 45.0000000  0 32E34G25E03E08S31S35G13E21E13S33G12G20
                                E15R22G05G11G18G06G29R07R23E27R15R13
                                E05G09R24E30R14R01R08G19
 139018195.080 7                  26454232.932
        42.100
 113422693.108 7  88381405.67247  21583593.943    21583592.9554   21583596.3344
        47.600          45.6004
 138899766.195 7                  26431737.150
        42.200
 147764523.741 6                  28118653.550
        36.300
 198982030.837 7                  37865016.588
        46.100
 200941455.529 7                  38237889.672
        44.600
 130427215.892 6 101631608.29742  24819474.438    24819473.8354   24819476.6914
        37.300          16.3004
 135929560.617 7                  25866519.625
        44.200
 131839237.159 7                  25088152.037
        45.900
 202127048.997 7                  38463469.262
        45.800
 115884243.261 7  90299540.28247  22051990.575    22051989.9364   22051990.4684
        46.700          44.5004
 106814714.920 8  83232299.78246  20326138.354    20326137.0314   20326137.1944
        48.000          39.8004
 124461458.174 8                  23684189.699
        48.600
 124663012.816 7  96960255.466 6  23353542.124    23353543.009    23353549.303
        44.800          41.500
 108087278.578 8  84223903.31448  20568305.824    20568305.3464   20568305.5604
        49.600          49.9004
 112599245.095 8  87739773.87046  21426887.187    21426886.8214   21426887.2924
        48.300          38.4004
 136638306.445 5 106471405.54242  26001404.245    26001404.0854   26001405.6854
        35.900          14.8004
 125632285.354 6  97895431.56545  23906989.017    23906988.7224   23906992.9194
        40.400          35.5004
 119513220.978 7  93127221.82647  22742595.614    22742594.9664   22742595.4334
        46.400          42.5004
 120198765.033 8  93487994.069 7  22454121.452    22454121.592    22454128.227
        48.300          44.200
 109260344.738 8                  20425035.582    20425035.871
        49.700
 129052517.357 7                  24557822.850
        47.300
 124786824.639 7  97056464.626 6  23352153.202    23352153.668    23352160.019
        45.200          39.100
 123310361.061 6                  23092025.757    23092024.941
        40.400
 134850571.330 6                  25661199.985
        40.200
 130642913.923 6 101799711.11245  24860512.133    24860511.5484   24860514.5864
        37.000          30.7004
 112121761.309 8  87205887.901 7  20967318.905    20967319.512    20967326.124
        50.000          46.200
 142567488.379 6                  27129644.177
        41.100
 115346477.046 8  89713973.993 7  21638698.301    21638698.165    21638704.488
        49.400          44.800
 116733828.103 7  90793023.248 6  21837469.010    21837468.787    21837477.317
        43.800          37.900
 108881003.363 8  84685294.612 7  20332745.527    20332745.638    20332751.563
        49.200          47.500
 128776241.550 6 100345242.93443  24505258.071    24505256.6504   24505259.3144
        37.100          20.4004
 25  1  1  4  8  0.0000000  0 33E34G25E03E08S31S35G13E21E13S33G15G12
                                G20E15R22G05G11G18G06G29R07R23E27R15
                                R13E05G09R24E30R14R01R08G19
 139047673.211 7                  26459842.515
        42.600
 113434731.392 7  88390786.15547  21585884.638    21585883.6464   21585887.1874
        47.100          45.9004
 138868576.040 7                  26425801.601
        42.100
 147722269.503 5                  28110612.738
        35.600
 198982025.178 7                  37865008.762
        45.400
 200941480.216 7                  38237899.899
        44.500
 130377898.627 6 101593179.28342  24810089.989    24810089.4224   24810092.0844
        39.000          17.4004
 135912036.638 7                  25863185.065
        44.400
 131818562.010 7                  25084217.373
        45.700
 202127029.854 7                  38463464.133
        45.300
 136417072.527 6 106299028.11744  25959305.375    25959304.9554   25959308.1044
        38.500          24.5004
 115926652.514 7  90332586.44747  22060060.702    22060060.0594   22060060.7054
        46.500          44.6004
 106827744.329 7  83242452.57046  20328617.754    20328616.4354   20328616.5974
        47.900          40.0004
 124469642.669 8                  23685747.101
        48.600
 124701983.805 7  96990566.213 6  23360842.907    23360843.268    23360848.533
        44.300          40.900
 108061079.491 8  84203488.45248  20563320.432    20563319.9544   20563320.0104
        49.400          50.1004
 112622698.050 8  87758048.89846  21431350.119    21431349.7574   21431350.2894
        48.500          38.6004
 136597595.724 6 106439682.94942  25993657.949    25993657.7804   25993658.6214
        38.300          17.1004
 125671560.219 6  97926035.34745  23914462.466    23914462.1454   23914466.6144
        40.300          35.5004
 119468891.341 7  93092679.26647  22734159.635    22734158.9964   22734159.8914
        46.200          42.7004
 120241400.987 8  93521155.380 7  22462086.190    22462086.075    22462093.448
        48.300          44.200
 109275495.990 8                  20427868.101    20427868.130
        49.600
 129076227.996 7                  24562334.723
        47.500
 124755138.847 7  97031820.138 6  23346223.406    23346223.500    23346231.385
        45.300          40.200
 123370107.981 6                  23103213.762    23103213.468
        40.100
 134850778.690 6                  25661239.114
        40.500
 130668686.556 6 101819793.65945  24865416.509    24865415.9424   24865419.3524
        38.300          30.5004
 112092924.925 8  87183459.611 7  20961926.692    20961927.258    20961933.173
        50.600          45.900
 142614031.881 6                  27138501.180
        40.800
 115364788.414 8  89728216.167 7  21642134.191    21642133.740    21642139.504
        50.100          44.900
 116672085.093 7  90745000.935 6  21825918.501    21825917.674    21825927.433
        43.300          38.100
 108871786.599 8  84678126.046 7  20331024.047    20331024.474    20331030.185
        49.100          47.400
 128827278.765 5 100385012.13043  24514969.896    24514968.4834   24514971.9514
        35.800          19.7004
 25  1  1  4  8 15.0000000  0 33E34G25E03E08S31S35G13E21E13S33G15G12
                                G20E15R22G05G11G18G06G29R07R23E27R15
                                R13E05G09R24E30R14R01R08G19
 139077152.137 7                  26465451.977
        42.200
 113446916.203 7  88400280.81047  21588203.305    21588202.3084   21588205.8444
        47.400          46.1004
 138837445.003 7                  26419877.814
        42.100
 147679991.540 6                  28102567.608
        36.700
 198982020.512 7                  37865014.365
        45.800
 200941506.067 7                  38237905.376
        44.600
 130328555.708 6 101554730.23743  24800699.754    24800699.1554   24800702.8524
        37.700          18.0004
 135894611.605 7                  25859869.219
        44.200
 131797916.235 7                  25080288.969
        45.800
 202127012.285 7                  38463458.642
        45.200
 136364579.014 5 106258124.19443  25949316.530    25949316.0434   25949318.5984
        35.300          20.9004
 115969155.281 7  90365705.47247  22068149.078    22068148.4524   22068148.6674
        46.500          44.6004
 106840888.829 7  83252695.03846  20331119.064    20331117.7414   20331117.9114
        47.900          40.1004
 124477855.735 8                  23687309.992
        48.500
 124740977.619 7  97020894.723 6  23368148.069    23368148.088    23368154.056
        44.200          41.400
 108035010.083 8  84183174.63748  20558359.493    20558359.0154   20558359.1474
        49.800          50.3004
 112646197.082 8  87776359.83146  21435821.637    21435821.2714   21435822.0374
        48.300          38.8004
 136556892.842 5 106407966.45742  25985912.289    25985912.1334   25985912.6624
        35.400          13.5004
 125710840.615 6  97956643.43845  23921937.666    23921937.3534   23921941.3434
        40.400          35.3004
 119424596.839 7  93058164.09147  22725730.950    22725730.3114   22725730.9864
        46.500          42.8004
 120284182.116 7  93554429.611 7  22470078.624    22470078.318    22470084.940
        47.900          43.800
 109290702.924 8                  20430710.528    20430710.893
        49.400
 129100030.691 7                  24566864.258
        47.600
 124723614.389 7  97007301.121 6  23340323.508    23340323.391    23340331.884
        43.500          40.400
 123429880.181 6                  23114407.144    23114407.097
        40.200
 134851090.354 6                  25661298.436
        40.400
 130694579.152 6 101839969.67245  24870342.664    24870342.1104   24870346.7674
        37.300          31.3004
 112064121.726 8  87161057.116 7  20956540.206    20956540.742    20956547.072
        50.800          46.100
 142660588.239 6                  27147360.532
        41.100
 115383278.186 8  89742597.096 7  21645601.843    21645601.658    21645608.522
        48.800          45.000
 116610413.933 7  90697034.498 6  21814381.460    21814380.843    21814390.598
        43.200          38.500
 108862773.877 8  84671116.157 7  20329341.225    20329341.342    20329347.049
        48.900          47.500
 128878353.047 6 100424810.16543  24524689.161    24524687.7354   24524691.2644
        36.100          19.7004
 25  1  1  4  8 30.0000000  0 32E34G25E03E08S31S35G13E21E13S33G12G20
                                E15R22G05G11G18G06G29R07R23E27R15R13
                                E05G09R24E30R14R01R08G19
 139106629.396 6                  26471061.702
        41.800
 113459244.974 7  88409887.64447  21590549.585    21590548.5884   21590551.9074
        47.400          45.8004
 138806370.942 7                  26413964.259
        42.300
 147637687.746 5                  28094517.733
        35.800
 198982014.557 7                  37865008.633
        45.900
 200941530.424 7                  38237909.660
        44.400
 130279185.208 6 101516259.66242  24791305.515    24791304.9344   24791307.8534
        37.800          17.3004
 135877283.286 7                  25856571.728
        44.100
 131777297.364 7                  25076365.285
        45.900
 202126992.594 7                  38463456.755
        45.400
 116011748.982 7  90398895.35747  22076253.952    22076253.3264   22076253.9304
        46.600          44.4004
 106854145.806 7  83263025.15346  20333641.737    20333640.4184   20333640.6354
        47.600          40.0004
 124486094.887 8                  23688877.754
        48.700
 124779991.895 7  97051239.117 7  23375457.248    23375457.375    23375463.826
        44.500          42.200
 108009067.891 8  84162959.95548  20553422.845    20553422.3674   20553422.5304
        49.800          50.2004
 112669739.697 8  87794704.72446  21440302.018    21440301.6564   21440302.0534
        48.200          38.6004
 136516195.502 6 106376254.29142  25978167.397    25978167.1964   25978168.1164
        36.800          13.1004
 125750124.149 6  97987253.97645  23929413.224    23929412.8944   23929416.6754
        40.400          35.4004
 119380335.180 7  93023674.50047  22717308.355    22717307.7124   22717308.1534
        45.900          42.7004
 120327105.940 8  93587814.824 7  22478096.931    22478097.493    22478103.878
        48.500          44.400
 109305963.230 8                  20433563.788    20433563.560
        49.800
 129123922.901 7                  24571410.774
        47.500
 124692249.318 7  96982906.065 6  23334454.789    23334454.248    23334461.247
        44.900          39.500
 123489673.967 6                  23125604.365    23125603.736
        40.000
 134851504.004 6                  25661377.164
        40.400
 130720589.038 6 101860237.05345  24875293.111    24875292.5754   24875296.5364
        36.300          30.2004
 112035349.573 8  87138678.791 7  20951159.840    20951159.734    20951166.485
        50.700          46.100
 142707154.830 6                  27156221.591
        41.000
 115401943.675 8  89757114.711 7  21649103.627    21649103.707    21649109.852
        49.900          44.800
 116548812.953 7  90649122.648 6  21802857.962    21802858.031    21802867.231
        43.700          38.500
 108853962.991 8  84664263.265 7  20327695.828    20327696.156    20327701.635
        49.400          47.600
 128929461.840 6 100464635.12343  24534414.769    24534413.3304   24534417.0834
        36.700          19.3004
 25  1  1  4  8 45.0000000  0 32E34G25E03E08S31S35G13E21E13S33G12G20
                                E15R22G05G11G18G06G29R07R23E27R15R13
                                E05G09R24E30R14R01R08G19
 139136108.393 6                  26476671.448
        41.700
 113471720.901 7  88419609.14847  21592923.537    21592922.5364   21592926.0084
        47.100          45.5004
 138775357.476 7                  26408062.417
        42.100
 147595361.686 5                  28086463.347
        35.800
 198982010.582 7                  37865004.935
        45.200
 200941556.628 7                  38237911.350
        44.300
 130229790.806 6 101477770.48042  24781905.429    24781904.8354   24781908.3374
        38.200          16.3004
 135860055.167 7                  25853293.112
        44.200
 131756708.773 7                  25072447.316
        45.700
 202126974.872 7                  38463454.018
        45.400
 116054436.577 7  90432158.40647  22084377.072    22084376.4514   22084377.1294
        46.300          43.9004
 106867518.524 8  83273445.45646  20336186.725    20336185.4154   20336185.3864
        48.000          39.5004
 124494363.477 8                  23690451.351
        48.600
 124819030.074 7  97081602.087 6  23382768.328    23382769.341    23382776.324
        43.600          41.300
 107983256.487 8  84142847.18748  20548511.068    20548510.5864   20548510.7834
        49.200          49.8004
 112693329.211 8  87813086.16046  21444790.768    21444790.4024   21444790.9944
        48.100          38.2004
 136475507.117 6 106344549.11142  25970424.490    25970424.2624   25970425.5554
        37.300          16.8004
 125789414.165 6  98017869.55745  23936889.550    23936889.2114   23936893.4874
        40.400          35.1004
 119336110.066 7  92989213.38047  22708892.354    22708891.7204   22708892.3984
        45.800          42.4004
 120370175.177 8  93621313.131 7  22486142.169    22486142.171    22486149.400
        48.200          44.100
 109321280.462 8                  20436426.638    20436426.941
        49.400
 129147907.876 7                  24575975.106
        47.100
 124661047.262 7  96958637.755 6  23328615.859    23328616.026    23328623.414
        45.000          40.200
 123549492.873 6                  23136806.701    23136806.591
        40.200
 134852023.047 6                  25661475.764
        39.700
 130746719.533 6 101880598.47245  24880265.385    24880264.8404   24880268.7394
        38.400          30.8004
 112006611.643 8  87116327.080 7  20945785.379    20945785.886    20945792.543
        50.300          46.000
 142753734.804 6                  27165085.569
        41.100
 115420788.149 8  89771771.504 7  21652637.983    21652638.601    21652644.839
        49.300          44.700
 116487285.857 7  90601268.261 6  21791347.462    21791347.247    21791356.733
        43.300          37.800
 108845357.449 8  84657570.071 7  20326088.876    20326089.051    20326094.695
        49.000          47.700
 128980608.362 5 100504489.49943  24544147.655    24544146.2164   24544149.8524
        35.000          19.2004
 25  1  1  4  9  0.0000000  0 32E34G25E03E08S31S35G13E21E13S33G12G20
                                E15R22G05G11G18G06G29R07R23E27R15R13
                                E05G09R24E30R14R01R08G19
 139165589.259 7                  26482281.202
        42.200
 113484344.037 7  88429445.35747  21595325.917    21595324.9164   21595328.0884
        47.500          45.5004
 138744405.011 7                  26402172.584
        42.100
 147553013.792 6                  28078404.657
        36.700
 198982008.702 7                  37865010.064
        46.000
 200941585.139 7                  38237918.840
        44.600
 130180373.058 6 101439263.15242  24772501.773    24772501.1884   24772504.6224
        38.700          16.4004
 135842927.556 7                  25850034.151
        44.400
 131736150.562 7                  25068535.286
        46.000
 202126959.005 7                  38463447.767
        45.000
 116097217.554 7  90465494.22247  22092517.945    22092517.3194   22092518.1254
        46.500          43.8004
 106881006.925 8  83283955.89946  20338753.255    20338751.9364   20338752.1204
        48.000          39.7004
 124502661.587 8                  23692030.305
        48.800
 124858092.285 7  97111983.797 6  23390087.019    23390087.483    23390094.032
        44.900          41.400
 107957576.185 8  84122836.57348  20543624.434    20543623.9524   20543623.9844
        49.500          49.9004
 112716965.682 8  87831504.18746  21449288.566    21449288.2004   21449288.8254
        48.100          38.2004
 136434827.709 6 106312850.89442  25962683.859    25962683.6144   25962684.3764
        36.600          15.4004
 125828710.713 6  98048490.24245  23944367.158    23944366.8014   23944371.2974
        40.900          35.2004
 119291921.880 7  92954781.04447  22700483.764    22700483.1254   22700483.5834
        46.500          42.5004
 120413389.746 8  93654924.486 7  22494215.115    22494215.274    22494222.231
        48.100          44.000
 109336654.619 8                  20439300.795    20439300.974
        49.300
 129171985.613 7                  24580556.882
        47.800
 124630008.837 7  96934496.760 6  23322806.872    23322806.476    23322814.696
        44.100          40.200
 123609336.123 6                  23148012.859    23148012.906
        40.400
 134852647.655 6                  25661594.843
        40.300
 130772970.303 6 101901053.49445  24885260.798    24885260.2444   24885264.4494
        36.600          30.2004
 111977908.703 8  87094002.585 7  20940418.255    20940418.369    20940424.780
        50.500          46.100
 142800328.112 6                  27173952.089
        41.400
 115439811.397 8  89786567.363 7  21656207.183    21656207.398    21656213.740
        49.600          44.800
 116425833.543 7  90553472.032 6  21779852.494    21779851.864    21779860.711
        44.000          38.200
 108836957.376 8  84651036.703 7  20324520.128    20324520.370    20324525.991
        49.200          47.600
 129031792.504 5 100544373.15042  24553888.234    24553886.7774   24553889.9894
        33.500          17.7004
 25  1  1  4  9 15.0000000  0 33E34G25E03E08S31S35G13E21E13S33G12G20
                                E15R22G05G11G18G06G29G15R07R23E27R15
                                R13E05G09R24E30R14R01R08G19
 139195064.409 6                  26487890.209
        41.800
 113497106.588 7  88439390.19847  21597754.134    21597753.1194   21597756.7204
        46.900          45.6004
 138713506.227 6                  26396292.862
        41.900
 147510636.635 5                  28070340.351
        35.900
 198982001.290 7                  37865004.979
        45.900
 200941607.546 7                  38237921.872
        44.300
 130130924.823 6 101400732.04642  24763092.068    24763091.4874   24763094.9064
        38.000          16.2004
 135825892.981 7                  25846792.452
        44.200
 131715615.133 7                  25064627.576
        45.900
 202126939.079 7                  38463444.954
        45.300
 116140084.223 7  90498896.80847  22100675.369    22100674.7304   22100675.3444
        46.400          43.9004
 106894603.162 8  83294550.36846  20341340.522    20341339.2124   20341339.4054
        48.000          39.7004
 124510981.564 8                  23693613.621
        48.600
 124897170.912 7  97142378.236 7  23397408.064    23397408.396    23397415.553
        43.700          42.200
 107932019.604 8  84102922.36648  20538761.211    20538760.7384   20538760.7144
        49.200          50.0004
 112740641.474 8  87849952.85246  21453794.067    21453793.7054   21453794.1504
        48.000          38.3004
 136394149.738 6 106281153.81942  25954943.335    25954943.0404   25954943.5904
        36.000          14.7004
 125868006.256 6  98079110.13645  23951845.152    23951844.7904   23951848.8024
        40.100          34.9004
 119247763.357 7  92920371.82347  22692080.355    22692079.6984   22692080.5644
        46.200          42.6004
 136154060.323 6 106094081.73143  25909255.647    25909255.3974   25909258.3064
        36.000          21.8004
 120456741.060 8  93688642.170 7  22502313.405    22502313.798    22502320.348
        48.800          44.000
 109352078.289 8                  20442184.021    20442184.289
        49.300
 129196148.378 7                  24585154.894
        47.400
 124599126.452 7  96910477.100 6  23317027.928    23317027.544    23317034.905
        43.600          39.900
 123669195.732 6                  23159223.623    23159222.812
        39.600
 134853370.297 6                  25661732.469
        40.000
 130799333.724 6 101921596.30545  24890277.669    24890277.1064   24890281.3724
        36.200          30.7004
 111949232.713 8  87071699.033 7  20935055.313    20935055.660    20935061.995
        50.600          46.100
 142846926.957 6                  27182819.703
        41.000
 115459005.327 8  89801495.944 7  21659808.498    21659808.240    21659814.769
        49.400          44.900
 116364448.860 7  90505728.387 6  21768369.121    21768368.867    21768377.141
        44.600          37.900
 108828755.425 8  84644657.411 7  20322988.426    20322988.593    20322994.233
        49.800          47.600
 129083006.526 6 100584280.10143  24563633.243    24563631.7594   24563635.8324
        36.200          18.4004
 25  1  1  4  9 30.0000000  0 33E34G25E03E08S31S35G13E21E13S33G12G20
                                E15R22G05G11G18G06G29G15R07R23E27R15
                                R13E05G09R24E30R14R01R08G19
 139224540.663 6                  26493499.509
        41.700
 113510015.250 7  88449448.89047  21600210.782    21600209.7724   21600213.1704
        47.600          45.6004
 138682668.233 7                  26390424.669
        42.300
 147468237.377 6                  28062272.635
        36.800
 198981995.335 7                  37865004.626
        46.100
 200941632.188 7                  38237930.677
        44.600
 130081453.372 6 101362182.89342  24753678.829    24753678.2884   24753680.5354
        38.200          16.2004
 135808958.415 7                  25843569.908
        44.400
 131695109.276 7                  25060725.491
        46.100
 202126919.180 7                  38463443.349
        45.500
 116183043.148 7  90532371.28447  22108850.494    22108849.8554   22108850.0874
        46.500          43.9004
 106908313.975 8  83305234.12346  20343949.785    20343948.4754   20343948.4594
        48.300          39.8004
 124519330.237 8                  23695202.277
        48.700
 124936272.965 7  97172790.920 6  23404733.157    23404733.714    23404740.031
        44.100          41.900
 107906593.508 8  84083109.83348  20533922.776    20533922.3034   20533922.2674
        49.600          50.1004
 112764363.310 8  87868437.40046  21458308.092    21458307.7354   21458308.2484
        48.100          38.3004
 136353480.096 6 106249463.23742  25947203.894    25947203.5994   25947204.5174
        37.200          14.9004
 125907307.550 6  98109734.51145  23959324.603    23959324.2504   23959327.4264
        40.600          34.9004
 119203641.738 7  92885991.35647  22683684.465    22683683.7864   22683684.5334
        46.200          42.7004
 136101295.684 6 106052966.56043  25899214.601    25899214.2714   25899216.7774
        37.100          19.5004
 120500236.089 7  93722471.654 7  22510438.793    22510438.741    22510446.083
        47.400          43.900
 109367558.236 8                  20445078.223    20445078.288
        49.500
 129220402.858 7                  24589770.211
        47.600
 124568407.575 7  96886584.655 6  23311280.052    23311279.385    23311286.697
        43.800          39.800
 123729078.173 6                  23170438.278    23170437.937
        41.200
 134854197.891 6                  25661890.018
        40.300
 130825816.599 6 101942232.18745  24895317.862    24895317.3124   24895320.9984
        37.000          30.4004
 111920590.810 8  87049422.012 7  20929699.331    20929699.622    20929705.912
        50.300          46.000
 142893537.978 6                  27191689.299
        41.300
 115478376.598 8  89816562.508 7  21663441.668    21663442.354    21663448.194
        49.500          44.700
 116303139.129 7  90458043.098 6  21756899.546    21756899.240    21756908.082
        44.000          38.300
 108820758.668 8  84638437.735 7  20321495.419    20321495.304    20321500.957
        49.600          47.900
 129134257.247 6 100624215.60643  24573386.318    24573384.8164   24573388.6514
        36.700          19.5004
 25  1  1  4  9 45.0000000  0 33E34G25E03E08S31S35G13E21E13S33G12G20
                                E15R22G05G11G18G06G29G15R07R23E27R15
                                R13E05G09R24E30R14R01R08G19
 139254016.780 6                  26499108.039
        41.700
 113523068.573 7  88459620.31347  21602694.904    21602693.8894   21602697.1164
        47.200          45.8004
 138651889.965 7                  26384567.360
        42.200
 147425814.938 5                  28054199.620
        35.600
 198981989.687 7                  37865004.362
        45.800
 200941656.859 7                  38237930.985
        44.900
 130031957.576 6 101323614.75142  24744258.744    24744258.1454   24744261.9254
        38.000          17.2004
 135792122.732 7                  25840366.230
        44.200
 131674631.676 7                  25056828.778
        46.100
 202126900.433 7                  38463437.415
        45.600
 116226092.686 7  90565916.36847  22117042.446    22117041.8124   22117042.0824
        46.400          44.0004
 106922137.923 8  83316006.03346  20346580.293    20346578.9834   20346579.0564
        48.100          40.1004
 124527706.257 8                  23696796.248
        48.500
 124975397.169 7  97203220.813 6  23412063.085    23412063.115    23412068.998
        44.800          41.600
 107881296.859 8  84063398.17248  20529108.946    20529108.4734   20529108.4624
        49.900          50.2004
 112788129.872 8  87886956.80146  21462830.853    21462830.4964   21462830.9234
        48.200          38.4004
 136312817.616 6 106217778.24742  25939465.892    25939465.5974   25939466.9514
        37.100          17.2004
 125946613.331 6  98140362.38245  23966803.717    23966803.3644   23966807.2654
        40.200          35.3004
 119159555.996 7  92851638.85447  22675295.237    22675294.5674   22675295.1794
        46.800          42.8004
 136048478.047 6 106011809.98243  25889164.283    25889163.8234   25889165.6434
        36.000          22.2004
 120543872.880 7  93756411.402 7  22518590.507    22518590.554    22518596.996
        47.400          43.300
 109383093.502 8                  20447982.415    20447982.276
        49.400
 129244747.653 7                  24594402.940
        47.600
 124537851.194 7  96862818.533 6  23305562.050    23305561.476    23305567.957
        45.400          39.700
 123788981.284 6                  23181654.325    23181655.225
        40.000
 134855129.116 6                  25662066.748
        40.800
 130852417.433 6 101962960.02145  24900379.343    24900378.8074   24900382.9334
        36.900          30.4004
 111891981.786 8  87027170.541 7  20924349.240    20924349.491    20924355.808
        50.500          46.100
 142940159.655 6                  27200561.318
        41.000
 115497923.634 8  89831765.746 7  21667109.377    21667109.340    21667115.609
        49.100          44.800
 116241903.872 7  90410415.668 6  21745444.753    21745444.199    21745453.328
        44.500          38.400
 108812965.667 8  84632376.524 7  20320039.918    20320040.077    20320045.645
        49.600          47.900
 129185543.228 6 100664178.61343  24583145.426    24583143.9114   24583147.9724
        36.500          19.0004
 25  1  1  4 10  0.0000000  0 33E34G25E03E08S31S35G13E21E13S33G12G20
                                E15R22G05G11G18G06G29G15R07R23E27R15
                                R13E05G09R24E30R14R01R08G19
 139283494.387 6                  26504717.844
        41.700
 113536268.082 7  88469905.64047  21605206.706    21605205.6914   21605208.8534
        47.300          45.5004
 138621173.326 7                  26378722.220
        42.700
 147383371.218 6                  28046122.512
        36.700
 198981985.788 7                  37865004.300
        46.000
 200941682.742 7                  38237939.826
        44.600
 129982439.565 6 101285029.31042  24734836.820    24734836.1864   24734838.9284
        38.200          17.2004
 135775387.721 7                  25837181.693
        44.300
 131654183.956 7                  25052937.374
        45.800
 202126883.019 7                  38463433.646
        45.600
 116269234.002 7  90599532.96747  22125251.868    22125251.2384   22125251.5784
        46.600          43.8004
 106936076.466 8  83326867.23546  20349232.629    20349231.3244   20349231.4844
        48.200          40.0004
 124536111.234 8                  23698395.644
        48.600
 125014545.192 7  97233669.250 7  23419397.001    23419397.336    23419403.935
        44.500          42.100
 107856131.354 8  84043788.69748  20524319.765    20524319.2834   20524319.6144
        49.800          50.1004
 112811942.718 8  87905512.26546  21467361.815    21467361.4534   21467362.3904
        48.200          38.3004
 136272163.743 6 106186099.95742  25931729.934    25931729.6394   25931730.9554
        38.100          16.5004
 125985925.230 6  98170995.02145  23974284.742    23974284.3944   23974288.2454
        40.100          35.2004
 119115507.898 7  92817315.67547  22666912.992    22666912.3314   22666913.1094
        46.200          42.8004
 135995609.302 5 105970613.63643  25879104.101    25879103.7664   25879104.9974
        34.800          19.2004
 120587652.885 8  93790462.537 7  22526768.919    22526769.527    22526775.858
        48.500          43.500
 109398685.828 8                  20450897.008    20450897.183
        49.200
 129269184.241 7                  24599053.156
        47.600
 124507459.241 7  96839180.359 6  23299873.398    23299874.288    23299880.151
        45.400          38.400
 123848906.470 6                  23192878.555    23192877.227
        40.300
 134856165.673 6                  25662264.189
        40.300
 130879137.890 6 101983781.16645  24905464.423    24905463.8784   24905467.4234
        38.200          31.4004
 111863407.558 8  87004946.150 7  20919005.726    20919005.956    20919012.612
        50.100          46.000
 142986793.463 6                  27209435.302
        40.800
 115517647.713 8  89847106.698 7  21670810.076    21670810.113    21670815.653
        50.200          45.000
 116180745.300 7  90362847.924 6  21734002.865    21734002.650    21734012.315
        44.300          38.400
 108805378.417 8  84626475.348 7  20318622.851    20318623.203    20318628.740
        49.400          47.900
 129236866.114 6 100704170.35943  24592912.529    24592910.9784   24592914.2424
        36.700          18.4004
 25  1  1  4 10 15.0000000  0 33E34G25E03E08S31S35G13E21E13S33G12G20
                                E15R22G05G11G18G06G29G15R07R23E27R15
                                R13E05G09R24E30R14R01R08G19
 139312967.680 6                  26510325.963
        41.900
 113549607.814 7  88480300.23747  21607745.314    21607744.2954   21607747.3624
        46.900          45.6004
 138590512.845 7                  26372887.665
        42.300
 147340900.740 6                  28038041.225
        36.600
 198981977.769 7                  37865008.812
        46.200
 200941704.915 7                  38237940.519
        44.400
 129932893.827 6 101246422.26642  24725408.498    24725407.8554   24725410.2314
        38.500          16.7004
 135758747.724 7                  25834014.903
        44.300
 131633760.299 7                  25049050.970
        46.100
 202126861.144 7                  38463432.818
        45.700
 116312460.924 7  90633216.27347  22133477.717    22133477.0964   22133477.3834
        46.700          43.8004
 106950123.722 8  83337813.15046  20351905.856    20351904.5514   20351904.6204
        48.200          40.0004
 124544539.353 8                  23699999.459
        48.600
 125053711.278 7  97264131.717 6  23426733.841    23426733.941    23426740.311
        44.700          41.800
 107831091.337 8  84024277.01048  20519555.012    20519554.5304   20519554.6394
        49.700          50.2004
 112835796.009 8  87924099.24546  21471901.332    21471900.9614   21471901.5384
        48.600          38.4004
 136231512.848 6 106154423.93842  25923994.732    25923994.3974   25923995.2534
        38.800          16.8004
 126025237.413 6  98201627.88445  23981765.481    23981765.1424   23981769.1624
        40.600          35.1004
 119071492.003 7  92783017.59547  22658537.189    22658536.5324   22658537.2104
        46.900          42.8004
 135942683.865 6 105929373.12343  25869031.887    25869031.5074   25869033.7814
        36.800          23.7004
 120631569.575 8  93824619.991 7  22534972.615    22534973.237    22534979.859
        48.200          43.500
 109414329.332 8                  20453821.395    20453821.289
        49.300
 129293706.711 7                  24603719.566
        47.400
 124477226.085 7  96815665.667 6  23294215.287    23294216.429    23294222.274
        44.200          39.100
 123908847.128 6                  23204103.130    23204102.516
        40.200
 134857301.904 6                  25662480.415
        40.400
 130905971.502 6 102004690.37545  24910570.581    24910570.0274   24910573.9044
        36.500          30.1004
 111834862.084 8  86982744.114 7  20913667.611    20913667.858    20913674.465
        50.600          46.200
 143033433.399 6                  27218310.861
        41.400
 115537542.798 8  89862580.630 7  21674541.418    21674541.910    21674548.112
        49.600          45.100
 116119657.920 7  90315335.542 6  21722575.088    21722575.163    21722584.297
        44.300          37.400
 108797991.254 8  84620729.770 8  20317243.658    20317243.887    20317249.369
        49.800          48.000
 129288220.015 5 100744186.35043  24602684.448    24602682.9014   24602686.7314
        35.600          18.4004
 25  1  1  4 10 30.0000000  0 33E34G25E03E08S31S35G13E21E13S33G12G20
                                E15R22G05G11G18G06G29G15R07R23E27R15
                                R13E05G09R24E30R14R01R08G19
 139342444.226 6                  26515935.643
        41.300
 113563095.075 7  88490809.79247  21610311.758    21610310.7484   21610313.9714
        46.900          45.9004
 138559916.207 7                  26367065.280
        42.100
 147298411.156 6                  28029955.386
        36.700
 198981973.449 7                  37865005.266
        45.800
 200941731.165 7                  38237946.775
        44.200
 129883328.197 6 101207799.69242  24715975.921    24715975.2734   24715978.2424
        38.200          17.1004
 135742210.373 7                  25830868.129
        44.200
 131613368.229 7                  25045170.690
        46.400
 202126843.492 7                  38463426.419
        45.100
 116355780.758 7  90666971.97147  22141721.269    22141720.6524   22141720.9224
        46.500          44.0004
 106964286.696 8  83348849.23646  20354601.075    20354599.7794   20354599.7654
        48.100          40.3004
 124552998.046 8                  23701609.261
        48.600
 125092902.974 7  97294614.088 6  23434075.608    23434075.961    23434081.843
        43.500          41.400
 107806184.584 8  84004869.16648  20514815.488    20514815.0064   20514815.0424
        49.700          50.3004
 112859697.146 8  87942723.49946  21476449.510    21476449.1444   21476449.7694
        48.100          38.4004
 136190872.363 5 106122756.12542  25916260.970    25916260.6354   25916261.3364
        35.200          14.9004
 126064557.347 6  98232266.78645  23989247.986    23989247.6474   23989251.4704
        40.800          35.3004
 119027515.798 7  92748750.43547  22650168.573    22650167.9074   22650168.6764
        46.300          43.0004
 135889709.352 5 105888094.39443  25858951.116    25858950.7274   25858953.0754
        33.700          22.0004
 120675630.122 8  93858889.299 7  22543203.995    22543204.166    22543211.244
        48.500          43.800
 109430031.534 8                  20456756.557    20456756.717
        49.500
 129318322.421 7                  24608403.671
        47.400
 124447159.815 7  96792280.757 6  23288590.195    23288590.184    23288596.396
        45.200          39.600
 123968810.499 6                  23215332.591    23215331.632
        40.800
 134858545.265 6                  25662717.111
        41.000
 130932926.130 6 102025694.06945  24915700.096    24915699.5334   24915703.1464
        37.400          30.8004
 111806353.259 8  86960570.582 7  20908336.356    20908336.745    20908343.075
        50.700          46.100
 143080086.735 6                  27227188.698
        40.700
 115557616.256 8  89878193.313 7  21678307.105    21678306.980    21678314.153
        49.000          45.100
 116058650.029 7  90267884.985 6  21711162.154    21711162.295    21711171.240
        43.800          38.000
 108790811.853 8  84615145.804 7  20315902.293    20315903.008    20315908.737
        49.600          47.900
 129339612.177 5 100784232.16243  24612464.493    24612462.9514   24612466.4344
        35.000          18.6004
 25  1  1  4 10 45.0000000  0 33E34G25E03E08S31S35G13E21E13S33G12G20
                                E15R22G05G11G18G06G29G15R07R23E27R15
                                R13E05G09R24E30R14R01R08G19
 139371915.994 6                  26521543.926
        41.200
 113576721.761 7  88501427.99047  21612904.931    21612903.9344   21612907.0564
        46.700          45.7004
 138529375.786 7                  26361253.527
        42.200
 147255894.775 6                  28021864.946
        36.600
 198981965.005 7                  37865000.499
        45.700
 200941752.501 7                  38237954.327
        44.600
 129833735.277 6 101169155.88043  24706539.165    24706538.5174   24706540.9894
        38.900          18.0004
 135725767.831 7                  25827739.343
        44.100
 131592999.687 7                  25041294.431
        46.200
 202126821.427 7                  38463424.452
        45.200
 116399185.025 7  90700793.47047  22149980.949    22149980.3284   22149980.5364
        46.500          44.0004
 106978557.368 8  83359969.23746  20357316.528    20357315.2324   20357315.4174
        48.300          40.3004
 124561479.308 8                  23703223.032
        48.500
 125132112.331 7  97325110.250 6  23441420.473    23441421.075    23441427.691
        44.200          41.800
 107781403.226 8  83985559.02848  20510099.457    20510098.9664   20510099.2824
        49.600          50.3004
 112883638.121 7  87961378.80546  21481005.239    21481004.8734   21481005.5384
        47.900          38.4004
 136150234.391 5 106091090.18742  25908527.837    25908527.5114   25908528.1264
        35.400          12.9004
 126103877.075 6  98262905.52345  23996729.994    23996729.6414   23996733.6354
        40.700          35.2004
 118983571.690 7  92714508.28347  22641806.510    22641805.8534   22641806.3574
        46.000          43.0004
 135836678.344 6 105846771.58343  25848860.623    25848860.2484   25848861.7014
        36.100          18.5004
 120719826.098 8  93893263.968 7  22551460.282    22551461.062    22551466.557
        48.700          43.600
 109445784.468 8                  20459701.262    20459701.696
        49.200
 129343023.271 7                  24613104.125
        47.300
 124417252.631 7  96769019.631 6  23282992.972    23282993.103    23282999.964
        45.100          39.400
 124028787.972 6                  23226563.674    23226563.203
        39.700
 134859887.809 6                  25662972.212
        41.100
 130959993.180 6 102046785.28744  24920850.539    24920849.9674   24920853.8654
        36.400          29.8004
 111777873.119 8  86938419.364 7  20903010.462    20903010.716    20903017.216
        50.800          46.100
 143126745.333 6                  27236067.386
        40.500
 115577859.643 8  89893938.164 7  21682105.367    21682105.266    21682111.692
        49.400          45.200
 115997714.240 7  90220490.522 6  21699763.344    21699763.328    21699771.375
        45.200          37.700
 108783832.134 8  84609717.148 7  20314599.302    20314599.566    20314605.116
        49.700          47.800
 129391034.487 6 100824301.47843  24622249.742    24622248.2094   24622252.0074
        36.400          18.6004
 25  1  1  4 11  0.0000000  0 33E34G25E03E08S31S35G13E21E13S33G12G20
                                E15R22G05G11G18G06G29G15R07R23E27R15
                                R13E05G09R24E30R14R01R08G19
 139401391.629 6                  26527152.850
        41.100
 113590496.348 7  88512161.42947  21615525.907    21615524.9064   21615528.2364
        46.800          45.5004
 138498900.405 7                  26355454.368
        42.100
 147213360.445 6                  28013771.078
        36.700
 198981960.986 7                  37864999.752
        45.600
 200941777.796 7                  38237952.883
        44.400
 129784123.865 6 101130497.63442  24697098.035    24697097.4094   24697099.9544
        38.400          17.2004
 135709428.879 7                  25824630.223
        43.900
 131572663.277 7                  25037424.824
        46.000
 202126803.555 7                  38463419.913
        45.100
 116442681.942 7  90734687.15647  22158258.007    22158257.3904   22158257.7024
        46.300          43.7004
 106992944.316 8  83371179.85146  20360054.545    20360053.2534   20360053.1424
        48.300          40.1004
 124569991.725 8                  23704842.983
        48.500
 125171348.163 7  97355626.960 6  23448770.929    23448770.625    23448777.925
        43.000          41.800
 107756756.102 8  83966353.48348  20505409.405    20505408.9184   20505409.0774
        49.100          50.1004
 112907627.485 7  87980071.81546  21485570.429    21485570.0724   21485570.5874
        47.900          38.2004
 136109607.642 6 106059433.02642  25900796.100    25900795.7704   25900797.2584
        37.800          14.6004
 126143205.202 6  98293550.81445  24004214.015    24004213.6714   24004217.6964
        40.700          35.2004
 118939668.723 7  92680298.18947  22633452.059    22633451.4114   22633451.9854
        46.400          42.8004
 135783599.764 5 105805411.72343  25838758.846    25838758.4624   25838760.7084
        35.900          23.8004
 120764165.853 8  93927750.458 7  22559742.725    22559743.111    22559750.247
        48.000          44.200
 109461597.290 8                  20462657.623    20462657.586
        49.100
 129367817.709 7                  24617822.556
        47.200
 124387513.624 7  96745889.282 6  23277427.657    23277427.346    23277434.999
        44.200          39.300
 124088787.867 6                  23237799.177    23237799.219
        40.100
 134861338.267 6                  25663248.419
        40.300
 130987181.472 5 102067971.08645  24926024.205    24926023.6334   24926027.7694
        35.500          31.1004
 111749430.581 8  86916297.391 7  20897691.399    20897691.886    20897698.114
        50.600          45.900
 143173417.538 6                  27244948.796
        40.800
 115598281.135 8  89909821.543 7  21685935.964    21685936.369    21685942.129
        49.500          45.100
 115936859.727 7  90173159.256 6  21688378.670    21688378.703    21688387.805
        44.700          38.100
 108777061.124 8  84604450.812 7  20313335.148    20313335.139    20313340.613
        49.400          47.800
 129442495.546 5 100864400.99943  24632042.312    24632040.8104   24632044.9194
        35.100          18.3004
 25  1  1  4 11 15.0000000  0 33E34G25E03E08S31S35G13E21E13S33G12G20
                                E15R22G05G11G18G06G29G15R07R23E27R15
                                R13E05G09R24E30R14R01R08G19
 139430867.105 6                  26532761.954
        41.400
 113604414.593 7  88523006.81547  21618174.480    21618173.4744   21618176.7604
        46.600          45.4004
 138468486.304 7                  26349666.705
        42.400
 147170804.402 5                  28005673.033
        35.600
 198981956.235 7                  37865002.972
        46.100
 200941804.248 7                  38237956.840
        44.000
 129734490.257 6 101091822.07742  24687653.170    24687652.5494   24687654.8234
        38.400          17.2004
 135693189.584 7                  25821539.554
        43.600
 131552354.947 7                  25033559.901
        46.100
 202126786.609 7                  38463421.559
        45.600
 116486267.143 7  90768649.63847  22166552.062    22166551.4544   22166551.6864
        46.200          43.5004
 107007443.283 7  83382477.74746  20362813.511    20362812.2194   20362812.1914
        47.800          40.0004
 124578531.216 8                  23706468.021
        48.400
 125210606.382 7  97386161.084 6  23456125.566    23456126.175    23456132.326
        44.000          41.300
 107732239.135 8  83947249.36148  20500743.874    20500743.3924   20500743.6414
        49.000          49.9004
 112931661.116 8  87998799.32346  21490143.719    21490143.3624   21490144.0154
        48.100          38.1004
 136068987.991 6 106027781.36542  25893066.673    25893066.3474   25893067.6654
        37.100          16.8004
 126182537.641 6  98324199.46245  24011698.846    24011698.4844   24011702.4274
        40.000          35.2004
 118895803.104 7  92646117.20547  22625104.970    22625104.3364   22625104.6734
        45.300          42.6004
 135730469.625 5 105764011.69543  25828649.388    25828648.9774   25828650.2444
        35.700          20.5004
 120808644.867 7  93962345.265 7  22568052.061    22568052.351    22568058.495
        47.900          43.600
 109477465.772 8                  20465623.861    20465624.074
        49.400
 129392701.566 7                  24622557.631
        47.200
 124357938.793 7  96722886.623 6  23271893.309    23271893.669    23271900.297
        45.700          39.300
 124148805.373 6                  23249039.797    23249038.888
        40.000
 134862892.575 6                  25663544.620
        39.900
 131014486.014 6 102089247.19245  24931220.274    24931219.7204   24931223.7594
        37.400          30.9004
 111721021.478 8  86894201.437 7  20892379.105    20892379.465    20892385.504
        51.200          46.200
 143220099.161 6                  27253832.011
        40.400
 115618876.667 8  89925840.274 7  21689799.761    21689799.453    21689806.483
        49.300          45.100
 115876082.904 7  90125888.416 6  21677009.399    21677008.994    21677018.185
        44.200          38.300
 108770494.920 8  84599343.772 7  20312108.541    20312108.895    20312114.673
        49.900          47.800
 129493991.140 5 100904527.48543  24641842.502    24641841.0094   24641843.8674
        35.200          18.4004
 25  1  1  4 11 30.0000000  0 33E34G25E03E08S31S35G13E21E13S33G12G20
                                E15R22G05G11G18G06G29G15R07R23E27R15
                                R13E05G09R24E30R14R01R08G19
 139460341.144 7                  26538370.351
        42.000
 113618475.086 7  88533963.04047  21620850.073    21620849.0724   21620852.3694
        46.700          45.4004
 138438132.479 7                  26343890.142
        42.400
 147128225.649 6                  27997570.717
        37.600
 198981951.568 7                  37864998.630
        45.700
 200941828.669 7                  38237967.688
        44.200
 129684833.782 6 101053128.68242  24678203.832    24678203.1894   24678205.8824
        38.600          16.9004
 135677048.812 7                  25818468.217
        44.100
 131532073.359 7                  25029700.531
        46.400
 202126766.540 7                  38463419.819
        45.200
 116529939.081 7  90802679.70847  22174862.558    22174861.9414   22174862.2184
        46.400          43.6004
 107022052.720 8  83393861.72346  20365593.452    20365592.1604   20365592.2344
        48.300          40.1004
 124587096.458 8                  23708097.718
        48.900
 125249885.711 7  97416711.619 6  23463484.657    23463484.382    23463490.699
        44.800          41.400
 107707851.210 8  83928245.79648  20496103.032    20496102.5594   20496102.7554
        49.200          50.0004
 112955737.668 8  88017560.26946  21494725.199    21494724.8334   21494725.6794
        48.100          38.2004
 136028374.164 6 105996134.26942  25885338.064    25885337.7834   25885339.0604
        38.300          16.8004
 126221873.155 6  98354850.49845  24019184.046    24019183.6934   24019187.8434
        40.600          35.1004
 118851973.763 7  92611964.49647  22616764.063    22616763.4244   22616764.1714
        46.700          42.7004
 135677287.273 6 105722570.98143  25818528.815    25818528.4094   25818529.6924
        36.900          21.6004
 120853261.396 7  93997047.036 7  22576387.010    22576386.781    22576393.519
        47.800          43.500
 109493388.447 8                  20468600.685    20468600.704
        49.400
 129417673.428 7                  24627309.802
        47.400
 124328527.428 7  96700011.119 6  23266388.638    23266389.383    23266396.181
        44.800          39.400
 124208838.651 6                  23260281.272    23260281.258
        40.200
 134864549.508 6                  25663859.685
        40.900
 131041905.619 6 102110612.89045  24936438.280    24936437.7444   24936441.8214
        37.200          30.9004
 111692644.714 8  86872130.630 7  20887072.320    20887072.588    20887078.837
        50.900          46.100
 143266788.720 6                  27262716.696
        41.300
 115639644.471 8  89941993.008 7  21693695.570    21693695.757    21693701.659
        49.100          44.700
 115815383.287 7  90078677.634 6  21665654.027    21665654.623    21665662.643
        44.400          38.300
 108764132.158 8  84594394.983 7  20310920.257    20310920.669    20310926.272
        49.300          47.500
 129545519.591 5 100944679.52643  24651647.452    24651645.9414   24651649.4024
        34.700          18.1004
 25  1  1  4 11 45.0000000  0 33E34G25E03E08S31S35G13E21E13S33G12G20
                                E15R22G05G11G18G06G29G15R07R23E27R15
                                R13E05G09R24E30R14R01R08G19
 139489810.649 6                  26543978.238
        41.400
 113632674.504 7  88545027.52047  21623552.484    21623551.4834   21623554.4634
        46.400          45.3004
 138407836.038 7                  26338125.330
        42.000
 147085621.201 6                  27989462.996
        36.500
 198981942.647 7                  37864997.565
        45.800
 200941849.177 7                  38237971.064
        44.200
 129635151.653 6 101014415.31142  24668749.014    24668748.3844   24668751.5224
        38.500          17.9004
 135661003.563 7                  25815414.786
        44.000
 131511815.415 7                  25025845.680
        46.300
 202126744.427 7                  38463415.437
        45.400
 116573694.278 7  90836774.65747  22183188.827    22183188.2104   22183188.5944
        46.600          43.7004
 107036769.332 8  83405329.21446  20368393.886    20368392.5944   20368392.6954
        48.400          40.2004
 124595684.288 8                  23709732.130
        48.700
 125289182.978 7  97447276.137 6  23470845.792    23470846.086    23470852.465
        44.900          41.600
 107683589.210 8  83909340.35148  20491486.425    20491485.9524   20491485.8314
        49.000          50.0004
 112979853.963 8  88036352.18546  21499314.554    21499314.1834   21499314.8384
        48.400          38.3004
 135987763.083 6 105964489.27442  25877609.572    25877609.2734   25877611.0544
        37.500          16.2004
 126261208.553 6  98385501.45245  24026669.369    24026669.0124   24026673.0624
        41.000          35.1004
 118808177.883 7  92577837.85247  22608430.102    22608429.4504   22608429.9794
        46.300          42.7004
 135624049.510 5 105681087.09243  25808397.987    25808397.5904   25808398.3154
        35.300          19.7004
 120898011.881 7  94031852.997 7  22584746.178    22584746.645    22584753.181
        47.400          43.300
 109509362.502 8                  20471586.597    20471586.657
        49.100
 129442730.010 7                  24632077.912
        47.400
 124299276.573 7  96677260.444 6  23260915.621    23260915.670    23260921.556
        45.600          39.000
 124268883.965 6                  23271525.698    23271526.016
        40.100
 134866306.028 6                  25664194.018
        40.800
 131069437.720 5 102132066.43944  24941677.090    24941676.5584   24941680.8954
        35.700          29.4004
 111664297.250 8  86850082.609 7  20881771.434    20881771.595    20881777.729
        50.500          46.100
 143313482.868 6                  27271602.202
        40.400
 115660580.791 8  89958276.804 7  21697622.937    21697623.107    21697629.591
        49.400          44.600
 115754757.823 7  90031524.536 6  21654313.074    21654313.176    21654321.419
        45.400          37.600
 108757969.706 8  84589601.972 7  20309769.309    20309770.008    20309775.375
        49.800          47.600
 129597077.759 5 100984854.70543  24661458.331    24661456.8604   24661460.6524
        35.700          18.4004
 25  1  1  4 12  0.0000000  0 33E34G25E03E08S31S35G13E21E13S33G12G20
                                E15R22G05G11G18G06G29G15R07R23E27R15
                                R13E05G09R24E30R14R01R08G19
 139519285.773 7                  26549587.562
        42.000
 113647022.892 7  88556208.07847  21626282.862    21626281.8744   21626284.9264
        47.000          45.2004
 138377607.427 7                  26332373.162
        42.200
 147043001.616 6                  27981353.034
        37.500
 198981938.908 7                  37865000.338
        45.800
 200941876.359 7                  38237969.356
        44.300
 129585454.420 6 100975690.23442  24659292.316    24659291.6734   24659294.1924
        38.300          17.4004
 135645064.187 7                  25812381.938
        44.100
 131491591.251 7                  25021996.802
        46.600
 202126727.760 7                  38463406.843
        45.100
 116617542.543 7  90870942.11847  22191532.970    22191532.3444   22191532.6154
        46.700          43.4004
 107051603.171 8  83416888.04746  20371216.580    20371215.2884   20371215.5504
        48.500          40.1004
 124604304.852 8                  23711372.376
        48.800
 125328508.712 7  97477862.767 6  23478212.852    23478213.446    23478219.785
        44.700          41.600
 107659463.705 8  83890541.26548  20486895.070    20486894.6014   20486894.8924
        49.300          49.8004
 113004020.112 8  88055182.95046  21503912.966    21503912.5774   21503913.5044
        48.000          38.0004
 135947164.925 6 105932854.38043  25869884.212    25869883.9044   25869885.3614
        39.400          19.4004
 126300553.976 6  98416160.21645  24034156.608    24034156.2334   24034160.3024
        41.200          35.2004
 118764426.089 7  92543745.57047  22600104.206    22600103.5454   22600104.2924
        45.900          42.6004
 135570766.808 6 105639568.15143  25798258.056    25798257.6634   25798259.3184
        37.100          23.0004
 120942905.957 8  94066770.677 7  22593133.306    22593133.517    22593139.799
        48.100          43.400
 109525398.139 8                  20474584.650    20474584.379
        49.300
 129467881.367 7                  24636864.015
        47.900
 124270196.910 7  96654642.939 6  23255474.123    23255473.607    23255480.164
        45.200          39.700
 124328951.586 6                  23282773.420    23282773.354
        39.200
 134868172.318 6                  25664549.416
        40.800
 131097091.547 6 102153614.74644  24946939.979    24946939.4474   24946943.1004
        36.200          29.4004
 111635989.419 8  86828065.406 7  20876477.750    20876478.022    20876483.949
        51.400          46.000
 143360191.574 6                  27280490.938
        40.900
 115681696.286 8  89974699.956 7  21701585.172    21701584.624    21701591.091
        50.000          44.900
 115694217.808 7  89984437.880 6  21642987.647    21642987.991    21642996.230
        45.400          37.800
 108752018.164 8  84584973.002 7  20308658.125    20308658.520    20308663.890
        50.200          47.600
 129648675.792 5 101025060.92743  24671277.337    24671275.8714   24671279.4814
        34.700          18.1004
 25  1  1  4 12 15.0000000  0 33E34G25E03E08S31S35G13E21E13S33G12G20
                                E15R22G05G11G18G06G29G15R07R23E27R15
                                R13E05G09R24E30R14R01R08G19
 139548758.653 6                  26555195.714
        41.500
 113661512.148 7  88567498.39947  21629039.618    21629038.6214   21629042.1644
        46.500          45.1004
 138347438.951 7                  26326632.175
        42.000
 147000359.161 6                  27973238.387
        37.200
 198981934.210 7                  37864997.574
        46.000
 200941901.283 7                  38237982.686
        44.500
 129535734.521 6 100936947.45342  24649830.665    24649830.0314   24649833.0664
        38.500          17.1004
 135629222.890 7                  25809367.020
        43.700
 131471392.918 7                  25018153.663
        46.400
 202126709.579 7                  38463407.795
        45.600
 116661475.622 7  90905175.67347  22199892.974    22199892.3444   22199892.8594
        46.200          43.4004
 107066546.098 8  83428531.88646  20374060.411    20374059.1194   20374059.1624
        48.400          40.1004
 124612950.188 8                  23713017.740
        48.900
 125367854.808 7  97508465.237 6  23485582.994    23485583.382    23485590.321
        44.500          41.200
 107635466.737 8  83871842.33948  20482328.782    20482328.3134   20482328.4184
        49.100          49.8004
 113028228.130 7  88074046.34346  21508519.989    21508519.6144   21508520.1744
        47.900          38.1004
 135906571.753 6 105901223.36643  25862159.538    25862159.2084   25862161.0404
        38.400          18.8004
 126339901.555 6  98446820.66145  24041644.241    24041643.8444   24041647.8644
        40.500          35.1004
 118720710.434 7  92509681.44347  22591785.739    22591785.0914   22591785.4864
        46.000          42.6004
 135517431.449 6 105598008.19543  25788108.920    25788108.5404   25788110.6084
        36.300          22.9004
 120987935.178 7  94101793.428 7  22601544.873    22601545.556    22601551.458
        47.500          43.600
 109541487.536 8                  20477592.267    20477592.193
        49.000
 129493119.430 7                  24641666.658
        47.500
 124241280.649 7  96632152.509 6  23250061.732    23250062.738    23250069.393
        45.500          39.700
 124389032.396 6                  23294028.252    23294026.568
        40.400
 134870140.544 6                  25664923.487
        41.300
 131124860.082 6 102175252.69844  24952224.265    24952223.7294   24952227.5474
        36.900          29.5004
 111607713.431 8  86806072.968 7  20871190.209    20871190.542    20871196.215
        51.600          46.300
 143406906.748 6                  27289380.378
        40.600
 115702982.299 8  89991255.732 7  21705576.515    21705577.390    21705584.353
        49.100          44.900
 115633755.803 7  89937411.902 6  21631677.144    21631677.236    21631685.873
        45.100          38.100
 108746269.555 8  84580501.873 7  20307584.696    20307584.887    20307590.486
        49.500          47.400
 129700305.532 5 101065291.80243  24681102.465    24681101.0354   24681104.9324
        35.300          18.7004
 25  1  1  4 12 30.0000000  0 33E34G25E03E08S31S35G13E21E13S33G12G20
                                E15R22G05G11G18G06G29G15R07R23E27R15
                                R13E05G09R24E30R14R01R08G19
 139578230.605 6                  26560804.275
        41.300
 113676143.484 7  88578899.43947  21631823.889    21631822.8974   21631826.4424
        46.900          45.3004
 138317332.246 7                  26320902.808
        42.300
 146957695.460 6                  27965119.983
        38.100
 198981929.258 7                  37864999.971
        46.000
 200941925.502 7                  38237983.795
        44.500
 129485993.664 6 100898188.37243  24640365.394    24640364.7774   24640368.1354
        37.800          18.4004
 135613481.147 7                  25806371.389
        44.400
 131451221.742 7                  25014315.138
        46.700
 202126690.155 7                  38463401.995
        45.400
 116705494.538 7  90939476.11447  22208269.816    22208269.1904   22208269.3664
        46.600          43.6004
 107081599.368 8  83440261.70746  20376924.743    20376923.4564   20376923.7154
        48.400          40.3004
 124621621.628 8                  23714667.911
        49.100
 125407222.691 7  97539084.640 6  23492958.256    23492958.778    23492965.457
        44.400          41.500
 107611599.935 8  83853244.84648  20477787.220    20477786.7514   20477786.7164
        49.100          50.0004
 113052479.333 8  88092943.38146  21513134.675    21513134.2954   21513135.0184
        48.100          38.3004
 135865985.030 6 105869597.36442  25854435.934    25854435.5904   25854437.3854
        37.500          16.8004
 126379252.600 6  98477483.80645  24049132.629    24049132.2094   24049136.2534
        40.300          35.2004
 118677032.652 7  92475646.83147  22583473.801    22583473.1584   22583473.8354
        46.200          42.7004
 135464045.016 6 105556408.42743  25777950.212    25777949.8554   25777951.5334
        36.300          22.2004
 121033100.626 7  94136922.152 7  22609981.894    22609982.198    22609989.351
        47.200          44.000
 109557632.162 8                  20480609.848    20480610.230
        49.000
 129518445.404 7                  24646486.138
        47.600
 124212529.556 7  96609790.539 6  23244680.920    23244681.749    23244689.043
        44.900          40.200
 124449127.466 6                  23305280.997    23305279.934
        40.200
 134872212.005 6                  25665317.331
        41.300
 131152743.635 6 102196980.41044  24957530.050    24957529.5144   24957533.5124
        36.100          29.7004
 111579470.642 8  86784106.359 7  20865907.874    20865908.577    20865915.100
        51.400          46.100
 143453629.513 6                  27298271.733
        40.500
 115724439.837 8  90007944.914 7  21709602.940    21709603.277    21709609.439
        50.200          44.400
 115573373.529 7  89890447.973 6  21620381.209    21620381.176    21620390.412
        45.200          38.700
 108740725.353 8  84576189.731 7  20306549.433    20306549.537    20306555.243
        50.000          47.400
 129751968.304 6 101105548.43243  24690933.113    24690931.7184   24690935.8484
        37.400          18.9004
 25  1  1  4 12 45.0000000  0 33E34G25E03E08S31S35G13E21E13S33G12G20
                                E15R22G05G11G18G06G29G15R07R23E27R15
                                R13E05G09R24E30R14R01R08G19
 139607701.359 7                  26566412.390
        42.000
 113690916.395 7  88590410.79247  21634635.142    21634634.1454   21634637.6224
        46.400          45.3004
 138287287.302 7                  26315185.460
        42.200
 146915010.446 6                  27956997.428
        38.500
 198981922.544 7                  37864997.163
        46.000
 200941949.266 7                  38237985.879
        44.600
 129436231.770 6 100859412.84742  24630896.082    24630895.5154   24630898.8484
        38.300          17.9004
 135597838.794 7                  25803394.812
        43.900
 131431077.414 7                  25010481.569
        46.900
 202126670.624 7                  38463401.258
        45.500
 116749598.621 7  90973842.92347  22216662.314    22216661.6714   22216662.1374
        46.300          43.6004
 107096762.436 8  83452077.08346  20379810.101    20379808.8054   20379809.1684
        48.500          40.3004
 124630318.830 8                  23716322.762
        48.900
 125446612.111 7  97569720.858 6  23500337.605    23500337.877    23500343.844
        43.400          40.700
 107587862.828 8  83834748.40948  20473270.011    20473269.5464   20473269.6844
        49.000          50.0004
 113076773.303 7  88111873.73946  21517757.539    21517757.1594   21517757.9974
        47.900          38.3004
 135825404.448 5 105837976.15542  25846713.757    25846713.3954   25846715.2954
        35.100          15.2004
 126418606.779 6  98508149.39745  24056621.015    24056620.6004   24056625.1484
        40.600          35.3004
 118633392.723 7  92441641.70447  22575169.142    22575168.4944   22575169.3714
        46.000          42.7004
 135410607.666 6 105514768.96943  25767780.504    25767780.1564   25767782.4734
        36.200          22.3004
 121078401.601 7  94172156.278 7  22618444.709    22618444.886    22618450.963
        47.700          43.300
 109573831.689 8                  20483638.276    20483638.502
        48.900
 129543858.833 7                  24651322.081
        47.500
 124183943.448 7  96587556.892 6  23239332.773    23239332.257    23239339.717
        45.200          40.200
 124509235.996 6                  23316536.346    23316535.209
        39.200
 134874386.508 6                  25665731.471
        40.400
 131180740.896 6 102218796.48545  24962857.016    24962856.4894   24962860.8694
        36.000          30.5004
 111551260.969 8  86762165.512 7  20860633.004    20860633.435    20860639.059
        51.500          45.900
 143500359.382 6                  27307164.034
        40.600
 115746067.970 8  90024766.800 7  21713659.240    21713660.040    21713666.690
        49.300          44.200
 115513071.437 7  89843546.369 6  21609100.937    21609100.658    21609108.682
        45.000          38.100
 108735385.399 8  84572036.446 7  20305552.089    20305552.499    20305558.188
        49.600          47.700
 129803663.547 6 101145830.36442  24700770.121    24700768.7264   24700773.1854
        36.300          17.8004
 25  1  1  4 13  0.0000000  0 33E34G25E03E08S31S35G13E21E13S33G12G20
                                E15R22G05G11G18G06G29G15R07R23E27R15
                                R13E05G09R24E30R14R01R08G19
 139637171.895 6                  26572020.085
        41.300
 113705831.667 7  88602033.07347  21637473.489    21637472.4924   21637475.8724
        46.300          45.4004
 138257305.303 7                  26309480.009
        42.000
 146872305.315 6                  27948870.720
        38.200
 198981916.805 7                  37864994.914
        46.000
 200941973.229 7                  38237986.742
        44.400
 129386450.380 6 100820622.15043  24621423.588    24621423.0124   24621426.0244
        37.900          18.1004
 135582296.914 7                  25800437.448
        44.300
 131410960.847 7                  25006653.671
        46.500
 202126651.445 7                  38463391.545
        45.200
 116793788.341 7  91008276.45347  22225071.456    22225070.8044   22225071.1984
        46.700          43.8004
 107112036.057 8  83463978.60346  20382716.758    20382715.4664   20382715.6344
        48.300          40.5004
 124639042.699 8                  23717982.759
        48.800
 125486024.147 7  97600374.602 6  23507721.121    23507721.728    23507727.388
        44.700          41.300
 107564256.466 8  83816353.85748  20468777.779    20468777.3064   20468777.5284
        49.200          50.1004
 113101110.977 8  88130838.16046  21522389.087    21522388.7034   21522389.3374
        48.100          38.5004
 135784831.000 6 105806360.50442  25838993.558    25838993.2054   25838994.3324
        37.600          16.7004
 126457965.030 6  98538818.15445  24064110.596    24064110.1854   24064114.9554
        41.000          35.5004
 118589791.927 7  92407667.06947  22566872.495    22566871.8434   22566872.4634
        46.000          42.9004
 135357120.540 6 105473090.74943  25757603.152    25757602.7954   25757604.0994
        37.400          23.6004
 121123838.490 7  94207496.100 7  22626932.622    22626933.037    22626940.114
        47.700          43.700
 109590087.217 8                  20486677.383    20486677.614
        49.200
 129569360.551 7                  24656174.825
        47.600
 124155523.946 7  96565452.842 6  23234014.040    23234013.964    23234020.999
        44.700          40.400
 124569358.363 6                  23327794.511    23327794.840
        39.700
 134876664.958 6                  25666165.455
        40.600
 131208853.998 6 102240702.78245  24968207.282    24968206.7464   24968210.8974
        36.900          30.4004
 111523085.385 8  86740251.184 7  20855364.147    20855364.214    20855370.338
        51.000          45.700
 143547097.110 6                  27316057.729
        40.800
 115767867.708 8  90041722.154 7  21717750.312    21717750.493    21717756.570
        49.800          44.600
 115452851.039 7  89796708.310 6  21597835.409    21597835.282    21597844.128
        45.000          38.500
 108730250.633 8  84568042.755 7  20304593.562    20304593.730    20304599.168
        49.900          47.700
 129855392.219 5 101186138.32742  24710614.539    24710613.1764   24710616.4254
        35.600          17.6004
 25  1  1  4 13 15.0000000  0 33E34G25E03E08S31S35G13E21E13S33G12G20
                                E15R22G05G11G18G06G29G15R07R23E27R15
                                R13E05G09R24E30R14R01R08G19
 139666646.017 6                  26577629.231
        41.700
 113720892.943 7  88613769.12847  21640339.692    21640338.7004   21640341.9184
        46.500          45.5004
 138227390.361 7                  26303787.157
        42.000
 146829584.161 6                  27940740.773
        37.500
 198981915.241 7                  37864991.475
        46.100
 200942001.208 7                  38238002.750
        44.800
 129336653.761 6 100781819.56443  24611947.325    24611946.7674   24611949.7034
        38.700          18.5004
 135566859.474 7                  25797499.570
        43.900
 131390875.859 7                  25002831.400
        46.700
 202126635.640 7                  38463391.286
        45.800
 116838067.249 7  91042779.48747  22233497.569    22233496.9214   22233497.2324
        46.700          43.9004
 107127423.861 8  83475969.10146  20385645.023    20385643.7454   20385643.8354
        48.100          40.6004
 124647797.038 8                  23719648.755
        48.600
 125525462.639 7  97631048.956 6  23515108.604    23515108.469    23515114.888
        43.200          40.400
 107540785.276 8  83798064.62748  20464311.491    20464311.0134   20464311.0924
        48.900          50.2004
 113125496.103 7  88149839.55646  21527029.607    21527029.2274   21527029.6514
        47.800          38.6004
 135744268.481 6 105774753.32443  25831274.325    25831273.9684   25831275.5164
        37.700          18.0004
 126497331.233 6  98569493.11245  24071601.774    24071601.3684   24071605.8124
        40.200          35.4004
 118546234.436 7  92373726.18147  22558583.827    22558583.1704   22558583.7344
        46.000          43.0004
 135303587.833 6 105431376.97544  25747415.317    25747414.9604   25747416.7684
        36.900          24.1004
 121169414.848 7  94242944.392 7  22635446.621    22635446.899    22635453.467
        47.400          43.500
 109606402.735 8                  20489727.525    20489727.497
        49.400
 129594954.233 7                  24661045.268
        47.500
 124127275.046 7  96543481.454 6  23228727.838    23228727.791    23228735.018
        44.600          40.600
 124629498.149 6                  23339057.513    23339058.007
        40.400
 134879051.294 6                  25666619.239
        40.600
 131237086.080 6 102262701.90445  24973579.482    24973578.9464   24973582.7784
        36.900          30.9004
 111494947.878 8  86718366.449 7  20850102.575    20850102.603    20850108.607
        51.200          45.900
 143593846.286 6                  27324953.755
        40.500
 115789842.777 8  90058813.846 7  21721872.504    21721872.479    21721878.449
        48.700          44.300
 115392716.739 7  89749937.215 6  21586586.112    21586585.833    21586594.161
        44.900          38.000
 108725325.281 8  84564211.928 7  20303673.513    20303673.949    20303679.306
        50.000          47.700
 129907157.894 6 101226475.12442  24720465.481    24720464.1624   24720466.8014
        36.400          17.8004
 25  1  1  4 13 30.0000000  0 33E34G25E03E08S31S35G13E21E13S33G12G20
                                E15R22G05G11G18G06G29G15R07R23E27R15
                                R13E05G09R24E30R14R01R08G19
 139696114.103 6                  26583236.947
        41.400
 113736090.415 7  88625611.31047  21643231.438    21643230.4414   21643233.9404
        46.500          45.5004
 138197533.099 6                  26298105.858
        41.900
 146786837.548 6                  27932606.973
        38.000
 198981907.425 7                  37864990.281
        45.900
 200942023.480 7                  38238006.650
        44.400
 129286832.496 6 100742997.76443  24602466.575    24602466.0344   24602469.0944
        38.600          19.0004
 135551516.948 7                  25794580.265
        44.000
 131370812.733 7                  24999013.814
        46.600
 202126614.858 7                  38463381.980
        45.200
 116882425.282 7  91077344.17947  22241938.636    22241937.9884   22241938.2924
        46.200          43.9004
 107142916.055 8  83488040.93646  20388592.867    20388591.5934   20388591.9404
        48.300          40.7004
 124656572.142 8                  23721318.577
        48.700
 125564917.888 7  97661736.323 6  23522500.888    23522500.866    23522507.088
        44.500          41.100
 107517439.429 8  83779873.06948  20459869.063    20459868.5944   20459868.4774
        48.800          50.2004
 113149918.960 8  88168870.35146  21531676.986    21531676.6204   21531677.1514
        48.200          38.5004
 135703707.228 6 105743147.18242  25823554.864    25823554.4804   25823557.0264
        36.900          16.1004
 126536695.659 6  98600166.68645  24079093.051    24079092.6674   24079096.6034
        40.300          35.4004
 118502710.685 7  92339811.59047  22550301.387    22550300.7444   22550301.3274
        45.800          42.9004
 135250000.208 6 105389620.43743  25737218.110    25737217.7754   25737219.3844
        36.200          23.1004
 121215120.472 7  94278493.225 7  22643985.870    22643985.238    22643991.417
        47.300          43.500
 109622768.343 8                  20492787.072    20492786.829
        49.000
 129620630.042 7                  24665931.026
        47.400
 124099187.169 7  96521635.337 6  23223471.241    23223471.868    23223478.657
        46.200          40.200
 124689644.661 6                  23350321.530    23350320.916
        40.200
 134881535.924 6                  25667092.153
        40.800
 131265427.239 6 102284786.10145  24978972.646    24978972.1234   24978975.3814
        38.000          30.9004
 111466838.812 8  86696503.838 7  20844845.786    20844846.175    20844851.857
        51.800          46.000
 143640597.091 6                  27333850.270
        40.400
 115811982.546 8  90076033.662 7  21726025.847    21726025.767    21726032.376
        49.700          44.600
 115332659.215 7  89703225.870 6  21575350.407    21575350.403    21575359.277
        44.700          38.000
 108720599.479 8  84560536.304 7  20302791.142    20302791.308    20302796.684
        50.000          47.600
 129958950.952 5 101266833.27143  24730321.031    24730319.6864   24730322.8704
        35.100          18.0004
 25  1  1  4 13 45.0000000  0 33E34G25E03E08S31S35G13E21E13S33G12G20
                                E15R22G05G11G18G06G29G15R07R23E27R15
                                R13E05G09R24E30R14R01R08G19
 139725584.594 6                  26588844.847
        41.300
 113751432.324 7  88637566.03447  21646150.875    21646149.8694   21646153.4054
        46.900          45.5004
 138167742.130 7                  26292436.480
        42.200
 146744074.227 6                  27924469.251
        37.700
 198981903.064 7                  37864987.616
        46.100
 200942048.521 7                  38238008.201
        44.900
 129236995.378 6 100704163.60542  24592983.169    24592982.6284   24592985.3024
        38.900          17.4004
 135536277.872 7                  25791680.161
        43.700
 131350779.930 7                  24995201.449
        46.300
 202126596.624 7                  38463383.027
        45.300
 116926870.546 7  91111976.83647  22250396.457    22250395.8144   22250395.8834
        46.300          43.9004
 107158520.899 8  83500200.55346  20391562.589    20391561.3114   20391561.4294
        48.500          40.7004
 124665376.418 8                  23722993.954
        48.500
 125604398.494 7  97692443.402 6  23529895.749    23529896.286    23529902.486
        43.800          40.800
 107494227.408 8  83761785.79148  20455451.679    20455451.2104   20455451.3554
        49.200          50.2004
 113174387.924 8  88187937.06946  21536333.270    21536332.9044   21536333.4214
        48.200          38.6004
 135663155.837 6 105711548.70842  25815839.266    25815838.8554   25815840.6284
        36.600          16.0004
 126576066.722 6  98630845.42845  24086584.710    24086584.3264   24086588.6904
        41.000          35.4004
 118459229.422 7  92305930.10447  22542027.214    22542026.5664   22542027.0234
        46.200          42.9004
 135196366.230 5 105347827.76443  25727011.082    25727010.7204   25727013.0984
        33.800          20.2004
 121260963.200 7  94314148.724 7  22652548.848    22652549.384    22652555.697
        47.700          43.700
 109639193.008 8                  20495857.397    20495857.274
        49.000
 129646396.317 7                  24670834.346
        47.300
 124071269.246 7  96499921.402 6  23218246.872    23218247.059    23218253.262
        45.100          40.300
 124749806.175 6                  23361586.987    23361587.446
        40.600
 134884127.283 6                  25667584.933
        40.400
 131293885.210 6 102306960.99344  24984387.259    24984386.7234   24984390.6904
        37.100          29.6004
 111438766.810 8  86674670.083 7  20839596.091    20839596.280    20839602.409
        51.400          46.200
 143687357.769 6                  27342748.622
        40.200
 115834295.633 8  90093388.293 7  21730211.952    21730211.832    21730218.110
        50.000          44.300
 115272687.651 7  89656581.380 6  21564131.578    21564131.920    21564140.275
        45.300          38.500
 108716081.851 8  84557022.621 7  20301947.086    20301947.634    20301953.202
        49.200          47.700
 130010779.549 5 101307219.11642  24740184.249    24740182.8594   24740185.6864
        35.000          17.7004
 25  1  1  4 14  0.0000000  0 33E34G25E03E08S31S35G13E21E13S33G12G20
                                E15R22G05G11G18G06G29G15R07R23E27R15
                                R13E05G09R24E30R14R01R08G19
 139755054.233 6                  26594452.708
        41.300
 113766915.261 7  88649630.65547  21649097.504    21649096.4984   21649099.7264
        46.700          45.4004
 138138014.522 6                  26286779.487
        41.700
 146701291.141 6                  27916327.731
        38.700
 198981898.580 7                  37864991.153
        46.100
 200942073.826 7                  38238012.870
        44.500
 129187139.665 6 100665314.96543  24583495.747    24583495.1934   24583498.0084
        38.800          18.2004
 135521139.173 7                  25788799.561
        43.800
 131330774.130 7                  24991394.817
        46.500
 202126578.595 7                  38463379.056
        45.500
 116971399.412 7  91146674.63747  22258869.980    22258869.3374   22258869.5194
        46.200          43.7004
 107174234.916 8  83512445.24046  20394552.859    20394551.5854   20394551.7284
        48.400          40.7004
 124674206.562 8                  23724674.466
        48.600
 125643901.208 7  97723167.691 6  23537296.859    23537296.991    23537303.370
        44.200          41.500
 107471146.089 8  83743800.35648  20451059.281    20451058.8084   20451059.1174
        49.200          50.2004
 113198899.676 8  88207037.13946  21540997.631    21540997.2694   21540997.8464
        48.100          38.6004
 135622610.988 6 105679955.32043  25808123.825    25808123.4414   25808125.2014
        37.900          18.1004
 126615441.184 6  98661526.81845  24094077.479    24094077.0904   24094081.4174
        40.300          35.3004
 118415787.661 7  92272079.40447  22533760.358    22533759.7014   22533760.3664
        46.300          42.9004
 135142683.215 6 105305996.87644  25716796.611    25716796.2364   25716797.6414
        37.300          24.6004
 121306939.806 7  94349908.326 7  22661136.834    22661137.372    22661144.374
        47.000          43.400
 109655673.353 8                  20498937.963    20498938.230
        49.000
 129672249.615 7                  24675754.015
        47.200
 124043518.238 7  96478337.278 6  23213053.845    23213053.484    23213060.068
        45.000          40.300
 124809979.002 6                  23372855.575    23372856.306
        40.500
 134886822.101 6                  25668097.686
        41.100
 131322456.990 5 102329224.51744  24989824.899    24989824.3814   24989828.1474
        35.300          29.4004
 111410728.839 8  86652862.784 7  20834353.023    20834353.097    20834358.975
        51.000          46.000
 143734124.775 6                  27351648.026
        40.600
 115856778.145 8  90110874.670 7  21734429.711    21734429.506    21734435.789
        49.400          44.200
 115212799.439 7  89610001.691 6  21552928.141    21552928.480    21552936.589
        44.900          38.500
 108711769.163 8  84553668.308 7  20301141.731    20301142.277    20301147.760
        50.100          47.500
 130062640.329 6 101347630.04243  24750053.839    24750052.4674   24750054.7274
        36.100          18.3004
 25  1  1  4 14 15.0000000  0 34E34G25E03E08S31S35G13E21E13S48S33G12
                                G20E15R22G05G11G18G06G29G15R07R23E27
                                R15R13E05G09R24E30R14R01R08G19
 139784523.235 6                  26600060.531
        41.400
 113782539.243 7  88661805.17847  21652070.433    21652069.4274   21652072.8814
        46.200          45.4004
 138108350.712 6                  26281134.257
        41.300
 146658488.763 6                  27908182.479
        38.200
 198981893.432 7                  37864987.370
        45.700
 200942098.514 7                  38238017.882
        44.200
 129137265.900 6 100626452.30043  24574005.586    24574005.0544   24574007.7404
        36.500          18.5004
 135506101.152 7                  25785937.893
        43.400
 131310795.516 7                  24987592.858
        46.300
 412909540.987 5                  78574074.147
        33.100
 202126560.396 7                  38463375.818
        45.400
 117016011.504 7  91181437.29647  22267359.058    22267358.4194   22267358.8724
        46.500          43.7004
 107190058.156 8  83524775.03246  20397563.841    20397562.5724   20397562.7894
        48.300          40.7004
 124683062.745 8                  23726359.586
        48.400
 125683426.229 7  97753909.331 6  23544701.081    23544702.186    23544707.505
        44.700          41.200
 107448195.818 8  83725917.04448  20446692.176    20446691.7034   20446691.8094
        49.000          50.2004
 113223454.366 8  88226170.66046  21545670.151    21545669.7854   21545670.4284
        48.100          38.5004
 135582072.895 6 105648367.16843  25800409.787    25800409.4214   25800410.8654
        38.400          18.5004
 126654819.212 6  98692210.98745  24101571.130    24101570.7504   24101574.8504
        40.900          35.2004
 118372385.873 7  92238259.84547  22525501.391    22525500.7344   22525501.3424
        46.200          42.9004
 135088951.221 6 105264127.82443  25706571.569    25706571.1724   25706573.0164
        36.500          22.6004
 121353049.565 7  94385771.483 7  22669751.363    22669751.287    22669757.761
        47.100          43.200
 109672209.396 8                  20502028.775    20502029.311
        49.100
 129698189.986 7                  24680690.306
        47.100
 124015934.620 7  96456883.345 6  23207891.511    23207891.770    23207898.541
        45.200          40.100
 124870162.605 6                  23384126.523    23384125.949
        40.100
 134889620.612 6                  25668630.548
        40.800
 131351142.846 5 102351576.99344  24995283.740    24995283.2224   24995287.0684
        35.300          29.2004
 111382725.038 8  86631082.041 7  20829116.035    20829116.254    20829122.231
        51.100          46.100
 143780898.196 6                  27360548.377
        39.600
 115879430.179 8  90128492.914 7  21738678.121    21738678.523    21738684.994
        49.300          44.000
 115152995.254 7  89563487.368 6  21541741.171    21541740.878    21541749.292
        45.600          38.300
 108707661.868 8  84550473.755 7  20300374.679    20300375.170    20300380.859
        49.800          47.600
 130114533.291 6 101388066.03943  24759927.927    24759926.5324   24759929.8774
        36.300          18.3004
 25  1  1  4 14 30.0000000  0 34E34G25E03E08S31S35G13E21E13S48S33G12
                                G20E15R22G05G11G18G06G29G15R07R23E27
                                R15R13E05G09R24E30R14R01R08G19
 139813989.063 6                  26605667.307
        41.200
 113798301.476 7  88674087.43647  21655070.204    21655069.2034   21655072.3604
        46.000          45.3004
 138078748.371 6                  26275501.834
        41.000
 146615664.762 6                  27900033.600
        38.800
 198981885.774 7                  37864981.432
        45.600
 200942120.737 7                  38238021.048
        44.500
 129087371.936 6 100587573.91043  24564510.935    24564510.4034   24564513.2644
        39.000          18.4004
 135491161.376 7                  25783095.185
        43.500
 131290841.537 7                  24983795.839
        46.400
 412909338.708 5                  78574040.601
        32.700
 202126539.416 7                  38463370.207
        45.400
 117060704.278 7  91216262.81947  22275863.670    22275863.0364   22275863.6434
        46.600          43.6004
 107205987.877 8  83537187.79946  20400595.064    20400593.7954   20400594.1564
        48.600          40.7004
 124691942.385 8                  23728049.246
        48.300
 125722971.046 7  97784666.374 6  23552108.598    23552109.469    23552115.374
        44.100          40.700
 107425374.136 8  83708133.92648  20442349.515    20442349.0374   20442348.9694
        49.500          50.2004
 113248049.369 8  88245335.59846  21550350.560    21550350.2074   21550350.6794
        48.200          38.5004
 135541539.013 6 105616782.36042  25792696.189    25792695.8004   25792697.5584
        37.600          17.3004
 126694198.265 6  98722895.95745  24109064.348    24109063.9514   24109068.4134
        40.200          35.0004
 118329021.957 7  92204469.79647  22517249.795    22517249.1474   22517249.4104
        45.400          42.7004
 135035168.233 5 105222219.03543  25696336.758    25696336.3344   25696337.7584
        34.700          21.3004
 121399289.549 7  94421735.908 7  22678388.876    22678388.794    22678396.167
        46.600          43.100
 109688799.061 8                  20505130.792    20505130.931
        49.000
 129724214.742 7                  24685642.699
        47.200
 123988516.156 7  96435557.872 6  23202761.010    23202761.227    23202767.743
        46.100          40.500
 124930354.144 6                  23395398.096    23395397.948
        39.900
 134892520.297 6                  25669182.347
        40.900
 131379940.624 5 102374017.13945  25000763.537    25000763.0054   25000767.4264
        35.800          30.3004
 111354752.968 8  86609325.990 7  20823885.476    20823885.578    20823891.207
        52.200          46.200
 143827675.230 6                  27369449.863
        40.000
 115902248.621 8  90146240.578 7  21742959.804    21742959.967    21742965.490
        49.600          44.300
 115093273.171 7  89517036.913 6  21530568.405    21530568.279    21530577.139
        44.900          38.700
 108703757.303 8  84547436.885 7  20299645.720    20299646.059    20299651.407
        49.700          47.600
 130166455.881 5 101428525.12142  24769808.345    24769806.9504   24769810.1104
        35.200          17.7004
 25  1  1  4 14 45.0000000  0 34E34G25E03E08S31S35G13E21E13S48S33G12
                                G20E15R22G05G11G18G06G29G15R07R23E27
                                R15R13E05G09R24E30R14R01R08G19
 139843457.633 6                  26611275.449
        41.100
 113814207.764 7  88686481.93747  21658096.891    21658095.9034   21658099.2284
        46.200          45.3004
 138049213.686 6                  26269881.116
        41.600
 146572825.337 6                  27891881.827
        38.200
 198981882.086 7                  37864988.957
        46.200
 200942146.646 7                  38238021.719
        44.300
 129037464.038 6 100548684.68043  24555013.504    24555012.9374   24555015.9634
        38.500          18.6004
 135476325.908 7                  25780271.641
        43.600
 131270918.051 7                  24980004.242
        46.300
 412909139.495 5                  78574023.980
        32.500
 202126521.476 7                  38463366.509
        45.600
 117105483.182 7  91251155.45747  22284384.979    22284384.3494   22284384.8164
        46.300          43.7004
 107222029.732 8  83549687.93846  20403647.919    20403646.6544   20403646.8524
        48.600          40.6004
 124700851.359 8                  23729744.762
        48.400
 125762541.734 7  97815443.515 6  23559521.951    23559522.708    23559528.546
        44.300          40.800
 107402687.080 8  83690455.70648  20438032.008    20438031.5214   20438031.7654
        49.400          50.2004
 113272690.516 8  88264536.48846  21555039.576    21555039.2194   21555039.7254
        48.100          38.6004
 135501015.305 6 105585205.43542  25784984.685    25784984.2794   25784985.8424
        37.200          16.8004
 126733584.217 6  98753586.29345  24116559.310    24116558.9084   24116563.4384
        40.200          34.8004
 118285701.946 7  92170713.95647  22509005.975    22509005.3324   22509005.8264
        46.000          42.9004
 134981340.481 5 105180275.35843  25686093.917    25686093.5244   25686094.6484
        35.600          22.2004
 121445665.261 7  94457805.924 7  22687053.016    22687052.773    22687059.202
        47.100          43.200
 109705448.280 8                  20508243.262    20508243.132
        48.800
 129750329.625 7                  24690612.159
        46.900
 123961268.941 7  96414365.583 6  23197662.242    23197661.784    23197669.226
        44.500          41.200
 124990558.830 6                  23406672.308    23406672.308
        39.100
 134895527.171 6                  25669754.483
        40.600
 131408854.345 6 102396547.19144  25006266.369    25006265.8374   25006269.3514
        37.000          29.6004
 111326818.740 8  86587599.367 7  20818661.459    20818661.610    20818667.515
        52.100          46.200
 143874461.553 6                  27378352.965
        40.100
 115925239.248 8  90164122.172 7  21747272.802    21747273.165    21747278.965
        49.800          44.300
 115033639.774 7  89470655.423 6  21519412.887    21519413.083    21519422.064
        45.700          38.800
 108700061.646 8  84544562.486 7  20298955.848    20298955.989    20298961.284
        49.600          47.300
 130218413.768 5 101469011.71742  24779695.394    24779693.9864   24779697.1894
        35.800          17.1004
 25  1  1  4 15  0.0000000  0 34E34G25E03E08S31S35G13E21E13S48S33G12
                                G20E15R22G05G11G18G06G29G15R07R23E27
                                R15R13E05G09R24E30R14R01R08G19
 139872922.600 6                  26616882.347
        41.300
 113830251.554 7  88698983.58847  21661149.923    21661148.9444   21661152.2294
        46.700          45.3004
 138019740.575 6                  26264272.570
        41.200
 146529964.370 6                  27883725.244
        38.300
 198981874.345 7                  37864981.718
        45.600
 200942169.042 7                  38238030.103
        44.300
 128987536.203 6 100509779.90643  24545512.593    24545512.0354   24545514.8434
        39.100          18.7004
 135461588.521 7                  25777467.053
        43.700
 131251018.713 7                  24976217.679
        46.600
 412908937.358 5                  78573996.663
        33.200
 202126500.103 7                  38463364.358
        45.100
 117150341.550 7  91286110.01747  22292921.435    22292920.8094   22292921.0544
        46.600          43.6004
 107238177.212 8  83562270.38246  20406720.692    20406719.4234   20406719.6124
        48.600          40.7004
 124709783.276 8                  23731444.402
        48.600
 125802131.781 7  97846235.742 6  23566937.367    23566938.308    23566944.915
        43.500          40.400
 107380128.319 8  83672877.46148  20433739.374    20433738.8834   20433738.9764
        49.300          50.2004
 113297371.431 8  88283768.36846  21559736.394    21559736.0414   21559736.4184
        48.600          38.5004
 135460495.469 6 105553631.51742  25777274.099    25777273.7104   25777274.9684
        37.300          16.8004
 126772970.717 6  98784277.06245  24124054.845    24124054.4484   24124058.3884
        40.600          34.9004
 118242419.931 7  92136987.72247  22500769.532    22500768.8804   22500769.5714
        46.400          42.8004
 134927461.798 6 105138292.02343  25675840.916    25675840.5234   25675842.4574
        36.700          23.8004
 121492169.875 7  94493976.181 7  22695739.833    22695740.071    22695746.778
        47.000          43.200
 109722150.659 8                  20511365.472    20511365.393
        48.700
 129776528.180 7                  24695597.739
        47.300
 123934187.172 7  96393301.988 6  23192594.222    23192594.103    23192601.058
        45.900          40.800
 125050769.749 6                  23417949.407    23417947.906
        38.900
 134898634.842 6                  25670345.403
        40.700
 131437878.850 6 102419163.82244  25011788.703    25011788.1454   25011792.4584
        36.300          29.7004
 111298916.271 8  86565897.435 7  20813443.858    20813443.745    20813449.597
        52.500          46.200
 143921250.708 6                  27387256.605
        40.500
 115948395.237 8  90182132.377 7  21751616.737    21751616.930    21751623.039
        49.600          44.300
 114974088.904 7  89424338.114 6  21508272.556    21508272.223    21508280.632
        45.200          38.700
 108696568.508 8  84541845.604 7  20298302.922    20298303.557    20298309.272
        49.600          47.600
 130270400.456 5 101509520.71242  24789588.384    24789586.9224   24789590.0864
        35.400          17.0004
 25  1  1  4 15 15.0000000  0 34E34G25E03E08S31S35G13E21E13S48S33G12
                                G20E15R22G05G11G18G06G29G15R07R23E27
                                R15R13E05G09R24E30R14R01R08G19
 139902387.935 6                  26622489.468
        41.600
 113846436.594 7  88711595.29847  21664230.051    21664229.0684   21664232.1264
        46.300          45.3004
 137990333.230 7                  26258676.527
        42.000
 146487086.059 6                  27875566.147
        38.700
 198981867.425 7                  37864984.271
        46.100
 200942191.887 7                  38238032.965
        44.600
 128937592.741 6 100470862.94743  24536008.583    24536008.0204   24536011.2904
        39.000          18.8004
 135446953.241 7                  25774682.137
        43.700
 131231147.403 7                  24972436.286
        46.600
 412908736.053 5                  78573970.235
        33.500
 202126480.921 7                  38463360.105
        45.500
 117195282.818 7  91321129.17347  22301473.485    22301472.8644   22301473.1314
        46.600          43.6004
 107254434.072 8  83574938.06246  20409814.330    20409813.0654   20409813.1934
        48.500          40.6004
 124718742.038 8                  23733149.291
        48.700
 125841745.344 7  97877046.243 6  23574359.968    23574359.359    23574365.886
        42.500          40.900
 107357701.955 8  83655402.37848  20429471.906    20429471.4154   20429471.3404
        49.200          50.2004
 113322095.968 8  88303034.24046  21564441.074    21564440.7304   21564441.3434
        48.200          38.5004
 135419983.402 6 105522063.67842  25769565.062    25769564.6734   25769565.7384
        37.200          17.5004
 126812361.718 6  98814971.34845  24131550.440    24131550.0514   24131554.1284
        39.200          34.6004
 118199179.884 7  92103294.19147  22492541.560    22492540.9034   22492541.2714
        46.600          42.8004
 134873536.568 6 105096272.38944  25665579.322    25665578.9514   25665581.0894
        37.500          24.7004
 121538806.815 7  94530249.370 7  22704451.751    22704452.522    22704458.938
        47.700          43.000
 109738910.130 8                  20514498.265    20514498.301
        49.100
 129802814.148 7                  24700599.820
        47.200
 123907275.007 7  96372370.305 6  23187558.012    23187558.215    23187564.897
        46.200          41.300
 125110990.325 6                  23429225.168    23429224.234
        38.700
 134901847.311 6                  25670957.147
        40.900
 131467017.364 5 102441869.25744  25017333.568    25017333.0104   25017336.6844
        35.200          28.3004
 111271049.313 8  86544223.143 7  20808232.334    20808232.530    20808238.355
        52.000          46.000
 143968046.361 6                  27396161.828
        39.900
 115971720.342 8  90200274.106 7  21755992.152    21755992.646    21755998.821
        49.600          44.100
 114914625.306 7  89378088.691 6  21497148.421    21497148.883    21497157.149
        45.400          39.200
 108693281.897 8  84539289.361 7  20297689.583    20297689.805    20297695.444
        49.800          47.500
 130322419.790 5 101550055.19442  24799487.540    24799486.0924   24799489.0694
        35.200          16.0004
 25  1  1  4 15 30.0000000  0 35E34G25E03E08S31S35G13E21E13S48S33G12
                                G20E15R22G05G11G18G06G29G15R07R23E27
                                R15R13E05G09R24R17E30R14R01R08G19
 139931853.658 6                  26628096.735
        41.100
 113862762.692 7  88724316.92347  21667336.941    21667335.9714   21667338.9294
        46.500          45.2004
 137960991.902 6                  26253093.189
        41.200
 146444190.672 6                  27867403.114
        38.700
 198981863.002 7                  37864982.120
        45.900
 200942216.798 7                  38238043.116
        44.700
 128887634.040 6 100431934.07343  24526501.553    24526500.9634   24526504.3254
        38.500          18.5004
 135432420.245 7                  25771917.018
        43.100
 131211304.117 7                  24968660.263
        46.100
 412908536.209 5                  78573942.999
        32.700
 202126461.391 7                  38463358.513
        45.700
 117240306.408 7  91356212.47747  22310041.198    22310040.5774   22310040.8984
        46.700          43.6004
 107270800.101 8  83587690.80746  20412928.611    20412927.3514   20412927.5664
        48.600          40.5004
 124727727.639 8                  23734859.174
        48.400
 125881382.446 7  97907875.015 6  23581784.421    23581784.507    23581791.574
        43.000          40.700
 107335408.256 8  83638030.67248  20425229.460    20425228.9784   20425228.9604
        49.600          50.1004
 113346864.102 8  88322334.08446  21569154.395    21569154.0514   21569154.6034
        48.400          38.5004
 135379479.182 6 105490501.93942  25761857.050    25761856.6484   25761858.2624
        37.700          17.2004
 126851757.163 6  98845669.08445  24139047.261    24139046.8554   24139050.9734
        40.100          34.7004
 118155982.223 7  92069633.68847  22484320.865    22484320.1954   22484320.9984
        46.300          42.8004
 134819564.959 6 105054216.62543  25655308.934    25655308.5724   25655310.5544
        37.000          23.8004
 121585576.198 7  94566625.571 7  22713189.358    22713189.398    22713196.399
        47.200          43.500
 109755726.904 8                  20517642.286    20517642.451
        49.300
 129829187.385 7                  24705618.342
        46.800
 123880532.756 7  96351570.777 6  23182553.853    23182554.492    23182561.013
        46.600          41.300
 125171220.352 6                  23440505.089    23440504.752
        39.500
 134905164.538 6                  25671588.384
        40.900
 131496269.745 5 102464663.39444  25022900.387    25022899.8024   25022902.7184
        34.900          29.0004
 111243218.145 8  86522576.677 7  20803027.632    20803028.263    20803033.811
        52.300          46.200
 132020775.738 7 102682861.937 5  24671238.429    24671238.643    24671245.889
        43.200          35.600
 144014848.324 6                  27405068.041
        39.700
 115995214.317 8  90218547.174 7  21760400.377    21760400.074    21760405.869
        49.300          44.100
 114855249.589 7  89331907.603 6  21486041.147    21486041.109    21486049.768
        45.300          38.500
 108690201.906 8  84536893.812 7  20297114.423    20297114.687    20297120.098
        49.800          47.500
 130374471.692 5 101590615.07142  24809392.603    24809391.1954   24809393.8124
        34.700          15.0004
 25  1  1  4 15 45.0000000  0 35E34G25E03E08S31S35G13E21E13S48S33G12
                                G20E15R22G05G11G18G06G29G15R07R23E27
                                R15R13E05G09R24R17E30R14R01R08G19
 139961320.035 7                  26633704.114
        42.100
 113879229.914 7  88737148.51747  21670470.146    21670469.1724   21670472.5524
        46.600          45.1004
 137931717.125 6                  26247521.803
        41.400
 146401278.735 6                  27859237.449
        39.800
 198981858.178 7                  37864979.902
        46.000
 200942241.893 7                  38238040.822
        44.500
 128837660.806 6 100392993.84743  24516992.031    24516991.4864   24516994.5664
        38.200          18.4004
 135417989.911 7                  25769170.816
        43.700
 131191489.116 7                  24964889.453
        46.700
 412908337.800 5                  78573913.978
        32.800
 202126443.622 7                  38463353.997
        45.400
 117285412.772 7  91391360.27547  22318624.617    22318623.9964   22318624.4104
        46.800          43.5004
 107287275.448 8  83600528.73546  20416063.822    20416062.5574   20416062.7414
        48.500          40.3004
 124736740.301 8                  23736574.140
        48.600
 125921043.420 7  97938722.385 6  23589214.922    23589214.921    23589221.443
        43.300          41.400
 107313247.522 8  83620762.57048  20421012.408    20421011.9174   20421011.8894
        49.600          50.2004
 113371676.019 8  88341668.04046  21573875.998    21573875.6594   21573876.1354
        48.600          38.6004
 135338983.062 6 105458946.53742  25754150.824    25754150.4404   25754152.1584
        37.500          17.4004
 126891157.373 6  98876370.54245  24146544.396    24146543.9814   24146548.4494
        39.300          34.4004
 118112827.522 7  92036006.66547  22476108.688    22476107.9954   22476108.7874
        46.400          42.7004
 134765547.484 6 105012125.09944  25645029.274    25645028.9304   25645031.2424
        37.100          24.2004
 121632477.362 7  94603104.245 7  22721950.299    22721951.019    22721957.466
        47.500          43.100
 109772601.359 8                  20520796.282    20520796.644
        49.000
 129855648.039 7                  24710653.837
        47.400
 123853960.751 7  96330903.673 6  23177581.202    23177581.118    23177587.567
        45.500          41.300
 125231459.331 6                  23451785.684    23451785.144
        39.500
 134908586.886 6                  25672239.694
        41.300
 131525635.570 6 102487545.78844  25028488.771    25028488.1954   25028490.9324
        36.300          29.2004
 111215422.996 8  86500958.241 7  20797829.833    20797830.207    20797835.867
        52.200          46.200
 131977779.655 6 102649420.558 5  24663203.243    24663204.153    24663211.264
        40.700          34.800
 144061656.697 6                  27413975.112
        40.600
 116018876.569 8  90236951.137 7  21764838.758    21764838.879    21764845.019
        49.500          44.000
 114795962.575 7  89285795.530 6  21474950.571    21474950.036    21474958.861
        45.300          39.000
 108687328.851 8  84534659.233 7  20296577.695    20296578.213    20296583.445
        49.900          47.300
 130426556.369 6 101631200.50942  24819304.408    24819303.0134   24819305.4814
        36.500          16.2004
 25  1  1  4 16  0.0000000  0 35E34G25E03E08S31S35G13E21E13S48S33G12
                                G20E15R22G05G11G18G06G29G15R07R23E27
                                R15R13E05G09R24R17E30R14R01R08G19
 139990782.196 6                  26639310.398
        41.700
 113895833.210 7  88750086.14347  21673629.852    21673628.8784   21673632.0804
        46.500          45.2004
 137902504.252 6                  26241962.868
        41.500
 146358345.584 6                  27851067.256
        39.400
 198981849.901 7                  37864979.478
        46.100
 200942263.450 7                  38238049.568
        44.500
 128787668.527 6 100354038.78943  24507479.399    24507478.8944   24507481.5064
        39.200          19.1004
 135403657.466 7                  25766443.403
        43.700
 131171697.459 7                  24961123.467
        46.600
 412908134.924 5                  78573896.503
        33.700
 202126422.379 7                  38463344.405
        45.200
 117330596.373 7  91426568.26447  22327222.723    22327222.1024   22327222.5184
        46.700          43.5004
 107303854.981 8  83613447.84646  20419218.792    20419217.5324   20419217.7354
        48.300          40.6004
 124745775.090 8                  23738293.351
        48.900
 125960723.305 7  97969584.473 6  23596647.321    23596648.189    23596655.820
        43.500          41.300
 107291215.057 8  83603594.42148  20416819.764    20416819.2734   20416819.2604
        49.200          50.2004
 113396526.754 8  88361032.24746  21578604.647    21578604.3034   21578605.0514
        48.200          38.6004
 135298490.182 6 105427393.65043  25746445.267    25746444.8654   25746446.4664
        37.700          18.2004
 126930557.384 6  98907071.84645  24154042.323    24154041.9174   24154045.8044
        39.900          34.4004
 118069711.266 7  92002409.59847  22467904.167    22467903.4794   22467903.9734
        46.200          42.8004
 134711479.567 5 104969994.29544  25634740.903    25634740.5644   25634742.5444
        35.900          24.6004
 121679505.009 7  94639681.328 7  22730735.468    22730735.928    22730742.380
        47.000          43.300
 109789528.531 8                  20523961.334    20523961.198
        48.900
 129882191.046 7                  24715704.469
        47.300
 123827554.508 7  96310365.456 6  23172639.206    23172639.403    23172646.353
        45.900          41.600
 125291701.826 6                  23463066.828    23463067.388
        39.300
 134912109.471 6                  25672909.744
        40.600
 131555110.513 6 102510513.28745  25034097.808    25034097.2184   25034100.4394
        37.100          30.4004
 111187659.361 8  86479364.306 7  20792637.995    20792638.113    20792643.669
        52.300          46.200
 131934763.068 7 102615963.227 6  24655165.278    24655165.410    24655172.208
        42.300          37.900
 144108466.334 6                  27422882.723
        40.300
 116042702.028 8  90255482.052 7  21769307.745    21769308.087    21769314.652
        49.100          44.000
 114736759.891 7  89239748.982 6  21463875.249    21463874.981    21463884.092
        45.500          39.000
 108684658.018 8  84532581.916 7  20296079.127    20296079.207    20296084.837
        49.700          47.300
 130478668.582 5 101671807.40942  24829220.115    24829218.6764   24829222.5874
        35.300          17.4004
 25  1  1  4 16 15.0000000  0 35E34G25E03E08S31S35G13E21E13S48S33G12
                                G20E15R22G05G11G18G06G29G15R07R23E27
                                R15R13E05G09R24R17E30R14R01R08G19
 140020246.333 6                  26644916.588
        41.800
 113912578.543 7  88763134.44847  21676816.327    21676815.3484   21676818.6124
        46.600          45.1004
 137873359.709 6                  26236417.108
        41.000
 146315397.679 6                  27842894.417
        39.200
 198981845.102 7                  37864978.664
        45.800
 200942287.977 7                  38238052.841
        44.300
 128737663.743 6 100315073.94743  24497962.925    24497962.4114   24497965.7734
        39.500          19.2004
 135389429.204 7                  25763735.842
        43.600
 131151935.299 7                  24957362.559
        46.800
 412907934.982 5                  78573870.075
        33.300
 202126403.720 7                  38463345.648
        45.000
 117375863.033 7  91461840.97147  22335836.791    22335836.1574   22335836.5224
        46.600          43.4004
 107320544.713 8  83626452.82946  20422394.715    20422393.4464   20422393.7184
        48.600          40.5004
 124754838.153 8                  23740018.088
        48.800
 126000428.443 7  98000466.195 6  23604087.301    23604086.527    23604093.126
        43.200          40.900
 107269316.968 8  83586530.97848  20412652.741    20412652.2544   20412652.1904
        49.400          50.1004
 113421422.440 8  88380431.47746  21583342.216    21583341.8724   21583342.5294
        48.000          38.5004
 135258006.730 6 105395848.12242  25738741.676    25738741.2614   25738743.0904
        36.900          17.3004
 126969963.407 6  98937777.82845  24161541.284    24161540.8644   24161544.6934
        40.000          34.3004
 118026639.782 7  91968847.41947  22459707.983    22459707.2864   22459707.8284
        46.200          42.7004
 134657367.764 6 104927829.30643  25624443.831    25624443.4834   25624445.5784
        36.000          22.7004
 121726664.822 7  94676361.164 7  22739545.865    22739545.781    22739552.724
        46.900          43.900
 109806515.006 8                  20527136.672    20527136.493
        49.000
 129908822.403 7                  24720772.507
        47.300
 123801320.559 7  96289961.291 7  23167730.545    23167729.700    23167736.891
        45.500          42.000
 125351953.617 6                  23474349.664    23474349.367
        38.400
 134915738.456 6                  25673600.692
        40.900
 131584700.130 5 102533570.10344  25039728.367    25039727.7734   25039731.2454
        34.300          28.9004
 111159933.295 8  86457799.582 7  20787453.266    20787453.535    20787458.787
        52.300          46.200
 131891732.164 6 102582494.853 6  24647123.723    24647123.903    24647130.836
        39.700          36.500
 144155283.227 6                  27431791.705
        40.800
 116066696.724 8  90274144.575 7  21773809.969    21773809.692    21773815.751
        48.900          44.000
 114677648.309 7  89193773.327 6  21452817.126    21452817.200    21452825.720
        46.000          39.300
 108682195.520 8  84530666.640 7  20295619.220    20295619.618    20295624.998
        50.100          47.300
 130530814.320 5 101712440.42342  24839143.277    24839141.8474   24839145.9274
        35.800          17.3004
 25  1  1  4 16 30.0000000  0 35E34G25E03E08S31S35G13E21E13S48S33G12
                                G20E15R22G05G11G18G06G29G15R07R23E27
                                R15R13E05G09R24R17E30R14R01R08G19
 140049709.288 6                  26650524.103
        41.300
 113929462.599 7  88776290.84647  21680028.983    21680027.9954   21680031.5584
        47.100          45.3004
 137844280.625 6                  26230883.555
        41.400
 146272432.099 6                  27834718.556
        39.700
 198981838.555 7                  37864978.445
        45.800
 200942311.673 7                  38238056.039
        44.200
 128687643.592 6 100276097.14643  24488444.691    24488444.1914   24488447.2404
        39.700          19.7004
 135375302.102 7                  25761047.525
        43.500
 131132199.459 7                  24953607.105
        46.600
 412907734.328 5                  78573838.515
        32.900
 202126384.551 7                  38463344.946
        45.400
 117421209.171 7  91497175.60747  22344465.637    22344465.0034   22344465.6624
        46.100          43.6004
 107337341.223 8  83639541.01546  20425590.767    20425589.4984   20425589.9854
        48.500          40.7004
 124763926.286 8                  23741747.421
        48.900
 126040155.681 7  98031365.109 6  23611528.975    23611529.132    23611534.782
        43.300          40.300
 107247550.199 8  83569569.86848  20408510.549    20408510.0584   20408510.0914
        49.500          50.3004
 113446359.877 8  88399863.24646  21588087.895    21588087.5514   21588087.9854
        48.500          38.6004
 135217529.600 6 105364307.48342  25731038.956    25731038.5594   25731040.6804
        36.800          16.6004
 127009372.240 6  98968485.99945  24169040.242    24169039.8224   24169044.0334
        39.100          34.3004
 117983609.994 7  91935317.71847  22451519.453    22451518.7564   22451519.4734
        46.100          42.9004
 134603209.103 6 104885627.79344  25614137.566    25614137.2224   25614138.9844
        37.300          24.7004
 121773952.913 7  94713140.812 7  22748379.635    22748380.025    22748385.896
        46.600          43.100
 109823557.341 8                  20530322.470    20530322.381
        48.900
 129935538.829 7                  24725856.290
        47.200
 123775256.094 7  96269688.960 6  23162852.510    23162853.132    23162858.682
        46.600          41.500
 125412210.984 6                  23485634.887    23485633.771
        38.500
 134919470.761 6                  25674310.696
        40.800
 131614401.399 6 102556714.04344  25045380.989    25045380.3954   25045382.5184
        36.000          27.9004
 111132241.951 8  86436261.905 7  20782274.468    20782274.591    20782280.930
        51.500          46.700
 131848683.654 5 102549012.755 5  24639079.722    24639079.364    24639086.337
        34.700          32.800
 144202104.038 6                  27440701.511
        39.900
 116090857.277 8  90292936.122 7  21778342.248    21778342.026    21778348.626
        49.100          43.800
 114618625.189 7  89147866.467 6  21441775.475    21441775.301    21441784.287
        45.100          39.100
 108679938.367 8  84528911.110 7  20295197.579    20295198.132    20295203.548
        49.900          47.300
 130582990.455 6 101753097.14642  24849072.481    24849071.0194   24849074.9504
        36.100          16.9004
 25  1  1  4 16 45.0000000  0 35E34G25E03E08S31S35G13E21E13S48S33G12
                                G20E15R22G05G11G18G06G29G15R07R23E27
                                R15R13E05G09R24R17E30R14R01R08G19
 140079175.704 7                  26656130.792
        42.300
 113946489.768 7  88789558.76747  21683269.178    21683268.1814   21683271.7674
        46.800          45.1004
 137815271.819 6                  26225363.054
        41.500
 146229453.721 6                  27826539.935
        39.000
 198981836.354 7                  37864977.778
        45.800
 200942339.598 7                  38238063.144
        44.100
 128637613.346 6 100237112.50343  24478924.366    24478923.8524   24478926.9274
        39.600          19.0004
 135361280.904 7                  25758379.426
        43.300
 131112494.566 7                  24949857.163
        46.800
 412907537.208 5                  78573818.061
        32.900
 202126369.462 7                  38463336.330
        45.300
 117466639.100 7  91532575.53747  22353111.062    22353110.4364   22353110.7664
        46.200          43.4004
 107354249.016 8  83652715.91546  20428808.312    20428807.0384   20428807.4294
        48.600          40.4004
 124773044.102 8                  23743482.483
        48.800
 126079909.728 7  98062284.830 6  23618975.445    23618975.340    23618983.266
        42.600          41.300
 107225919.394 8  83552714.70448  20404394.498    20404394.0024   20404393.8734
        49.600          50.1004
 113471343.604 8  88419331.08746  21592841.952    21592841.6084   21592842.2234
        48.700          38.4004
 135177063.417 6 105332775.37643  25723338.243    25723337.8324   25723340.4744
        37.700          18.4004
 127048788.530 6  98999199.97545  24176541.257    24176540.8284   24176544.7864
        39.300          33.8004
 117940626.907 7  91901824.41447  22443340.193    22443339.4964   22443340.0584
        46.500          42.8004
 134549008.418 6 104843393.51843  25603823.404    25603823.0564   25603824.5204
        37.600          23.3004
 121821374.261 7  94750024.108 7  22757237.398    22757238.117    22757244.690
        46.800          43.100
 109840660.513 8                  20533519.466    20533519.720
        48.800
 129962344.785 7                  24730957.152
        47.100
 123749365.836 7  96249552.093 7  23158007.288    23158007.668    23158014.806
        45.700          42.300
 125472478.095 6                  23496920.682    23496920.705
        38.900
 134923311.033 6                  25675041.764
        40.800
 131644218.596 6 102579948.41145  25051053.796    25051053.1754   25051056.1264
        36.800          30.0004
 111104589.985 8  86414754.822 7  20777103.504    20777103.584    20777109.405
        51.600          46.300
 131805622.312 6 102515520.663 5  24631031.791    24631031.835    24631039.116
        38.400          32.700
 144248933.178 6                  27449612.942
        40.000
 116115187.791 8  90311859.824 7  21782906.786    21782906.922    21782912.766
        49.100          43.800
 114559695.803 7  89102032.483 6  21430751.724    21430751.737    21430759.591
        46.000          38.700
 108677891.198 8  84527318.861 7  20294815.010    20294815.826    20294821.179
        49.700          47.500
 130635201.294 5 101793780.85542  24859008.467    24859006.9924   24859010.3054
        35.200          16.9004
 25  1  1  4 17  0.0000000  0 35E34G25E03E08S31S35G13E21E13S48S33G12
                                G20E15R22G05G11G18G06G29G15R07R23E27
                                R15R13E05G09R24R17E30R14R01R08G19
 140108635.343 6                  26661737.098
        41.800
 113963649.636 7  88802930.08947  21686534.654    21686533.6484   21686537.2194
        47.000          45.2004
 137786323.383 6                  26219854.712
        41.100
 146186452.567 6                  27818357.333
        39.500
 198981828.402 7                  37864974.344
        45.800
 200942361.592 7                  38238064.383
        44.400
 128587563.142 6 100198112.31743  24469400.756    24469400.2384   24469402.9884
        39.100          19.2004
 135347355.493 7                  25755729.474
        43.700
 131092810.348 7                  24946111.703
        46.600
 412907334.263 5                  78573790.060
        33.600
 202126347.824 7                  38463334.456
        45.400
 117512142.208 7  91568032.49147  22361769.928    22361769.2984   22361769.6614
        46.800          43.5004
 107371257.738 8  83665969.46146  20432045.203    20432043.9294   20432044.0924
        48.700          40.6004
 124782181.344 8                  23745221.247
        48.800
 126119680.266 7  98093217.449 6  23626426.507    23626426.932    23626433.227
        43.500          40.500
 107204414.723 8  83535957.82748  20400302.240    20400301.7444   20400301.6544
        49.600          50.3004
 113496363.371 8  88438827.00946  21597603.155    21597602.8114   21597603.3254
        48.600          38.6004
 135136597.943 6 105301243.86243  25715637.873    25715637.4934   25715639.4464
        38.600          18.6004
 127088202.025 6  99029911.78645  24184041.256    24184040.8364   24184044.7754
        40.200          33.8004
 117897680.962 7  91868360.05447  22435168.049    22435167.3614   22435167.7564
        46.300          42.9004
 134494755.919 6 104801118.86643  25593499.045    25593498.7324   25593500.9754
        36.300          23.4004
 121868917.766 7  94787002.447 7  22766119.144    22766120.155    22766126.991
        47.100          43.700
 109857814.069 8                  20536726.131    20536726.285
        48.800
 129989229.867 7                  24736073.584
        47.000
 123723639.961 7  96229543.088 6  23153192.998    23153193.421    23153199.629
        46.600          41.800
 125532744.095 6                  23508206.003    23508206.146
        38.900
 134927249.003 6                  25675790.839
        40.900
 131674140.771 6 102603264.34945  25056747.649    25056747.0374   25056750.0844
        38.000          31.1004
 111076967.178 8  86393270.418 7  20771938.057    20771938.086    20771943.759
        52.100          46.100
 131762537.799 6 102482010.494 5  24622979.964    24622980.441    24622987.190
        40.100          31.800
 144295760.196 6                  27458523.487
        40.500
 116139677.659 8  90330907.485 7  21787500.910    21787500.790    21787507.260
        49.000          43.900
 114500850.575 7  89056263.987 6  21419743.641    21419743.505    21419752.759
        46.300          39.100
 108676043.722 8  84525881.938 7  20294470.180    20294470.876    20294476.126
        49.700          47.400
 130687436.454 5 101834483.56042  24868947.592    24868946.0904   24868950.7944
        35.200          15.8004
 25  1  1  4 17 15.0000000  0 35E34G25E03E08S31S35G13E21E13S48S33G12
                                G20E15R22G05G11G18G06G29G15R07R23E27
                                R15R13E05G09R24R17E30R14R01R08G19
 140138097.827 6                  26667343.439
        41.900
 113980951.586 7  88816412.11947  21689827.341    21689826.3354   21689829.6614
        46.700          45.2004
 137757445.100 6                  26214359.257
        41.100
 146143438.474 6                  27810171.887
        38.900
 198981823.721 7                  37864973.615
        45.900
 200942386.405 7                  38238070.960
        44.500
 128537502.856 6 100159104.26143  24459874.241    24459873.7364   24459876.8724
        39.700          19.5004
 135333535.575 7                  25753099.549
        43.800
 131073156.355 7                  24942371.558
        46.300
 412907134.428 5                  78573762.931
        33.500
 202126329.870 7                  38463334.022
        45.400
 117557727.502 7  91603553.48147  22370444.293    22370443.6724   22370444.3094
        46.800          43.6004
 107388376.675 8  83679308.88946  20435302.694    20435301.4204   20435301.7374
        48.700          40.6004
 124791347.519 8                  23746965.682
        48.500
 126159477.058 7  98124170.484 6  23633881.318    23633881.767    23633888.468
        43.400          40.800
 107183045.743 8  83519306.67948  20396236.023    20396235.5414   20396235.2594
        49.700          50.4004
 113521428.639 8  88458358.38146  21602372.787    21602372.4394   21602373.0714
        48.500          38.6004
 135096142.811 6 105269720.38442  25707939.897    25707939.4914   25707940.8594
        37.000          17.9004
 127127622.280 6  99060628.86345  24191542.844    24191542.4244   24191546.3064
        40.400          33.7004
 117854781.637 7  91834932.01347  22427004.294    22427003.5974   22427004.2234
        46.100          43.0004
 134440461.461 6 104758811.53144  25583167.838    25583167.5214   25583169.0134
        36.400          24.2004
 121916592.348 7  94824082.702 7  22775025.286    22775026.022    22775032.080
        47.100          43.800
 109875027.893 8                  20539944.226    20539944.226
        49.200
 130016203.519 7                  24741206.451
        47.100
 123698088.213 7  96209669.507 6  23148411.999    23148411.298    23148418.538
        45.600          41.500
 125593018.332 6                  23519493.670    23519492.579
        37.600
 134931294.312 6                  25676560.506
        40.900
 131704177.627 6 102626669.62544  25062464.347    25062463.7484   25062466.5174
        37.300          29.9004
 111049383.287 8  86371816.273 7  20766779.652    20766779.788    20766785.211
        51.800          46.200
 131719439.972 6 102448490.029 5  24614926.420    24614926.638    24614933.704
        38.400          34.900
 144342594.482 6                  27467435.796
        40.300
 116164335.994 8  90350086.183 7  21792126.656    21792126.728    21792132.421
        49.100          43.500
 114442099.491 7  89010568.739 6  21408752.611    21408752.293    21408761.184
        44.900          39.300
 108674405.684 8  84524607.916 7  20294164.696    20294164.892    20294170.209
        49.900          47.300
 130739705.821 5 101875212.90442  24878893.860    24878892.3224   24878897.2704
        34.000          14.3004
 25  1  1  4 17 30.0000000  0 35E34G25E03E08S31S35G13E21E13S48S33G12
                                G20E15R22G05G11G18G06G29G15R07R23E27
                                R15R13E05G09R24R17E30R14R01R08G19
 140167555.017 6                  26672948.669
        41.800
 113998387.261 7  88829998.35547  21693145.121    21693144.1294   21693147.5344
        46.900          45.2004
 137728629.092 6                  26208875.772
        41.400
 146100403.514 6                  27801982.562
        39.300
 198981813.812 7                  37864972.511
        45.700
 200942406.857 7                  38238079.032
        44.500
 128487424.808 6 100120082.39343  24450344.250    24450343.7504   24450347.0754
        40.000          19.9004
 135319813.100 7                  25750488.395
        43.500
 131053524.406 7                  24938635.764
        46.600
 412906929.157 5                  78573742.285
        33.300
 202126307.446 7                  38463324.583
        45.400
 117603386.760 7  91639132.10947  22379133.086    22379132.4654   22379133.0974
        47.000          43.6004
 107405597.488 8  83692727.70346  20438579.792    20438578.5184   20438578.7164
        48.700          40.7004
 124800534.477 8                  23748713.872
        48.600
 126199291.832 7  98155137.465 6  23641340.433    23641340.089    23641347.653
        42.000          41.400
 107161804.136 8  83502754.78948  20392193.659    20392193.1774   20392193.1094
        50.000          50.5004
 113546531.228 8  88477918.83346  21607149.744    21607149.4004   21607149.9664
        48.600          38.6004
 135055689.893 6 105238198.64543  25700241.747    25700241.3504   25700243.1624
        37.800          18.1004
 127167041.151 6  99091344.85645  24199043.398    24199042.9334   24199047.6994
        39.200          33.7004
 117811921.005 7  91801534.12747  22418848.515    22418847.8224   22418848.1274
        46.300          43.2004
 134386117.135 6 104716465.32744  25572825.708    25572825.4004   25572827.8144
        37.600          24.6004
 121964389.385 7  94861258.215 7  22783954.310    22783954.475    22783961.361
        46.100          43.300
 109892293.802 8                  20543172.207    20543171.758
        48.900
 130043257.430 7                  24746354.575
        47.000
 123672702.530 7  96189925.076 6  23143661.342    23143660.955    23143667.511
        46.100          41.900
 125653291.757 6                  23530781.329    23530780.609
        38.400
 134935438.837 6                  25677348.900
        41.300
 131734321.126 6 102650158.07045  25068200.410    25068199.7934   25068202.9704
        37.700          31.0004
 111021830.341 8  86350386.208 7  20761626.965    20761627.102    20761633.289
        52.000          46.400
 131676320.383 6 102414952.651 5  24606868.465    24606868.595    24606875.152
        38.700          34.100
 144389427.692 6                  27476348.048
        40.200
 116189154.285 8  90369389.293 7  21796782.233    21796782.237    21796788.717
        49.200          44.100
 114383435.016 7  88964940.835 6  21397778.752    21397777.822    21397787.067
        45.100          39.000
 108672968.891 8  84523490.424 7  20293896.202    20293896.541    20293901.720
        50.000          47.200
 130792001.055 5 101915962.47942  24888845.646    24888844.0864   24888848.3964
        34.700          16.2004
 25  1  1  4 17 45.0000000  0 35E34G25E03E08S31S35G13E21E13S48S33G12
                                G20E15R22G05G11G18G06G29G15R07R23E27
                                R15R13E05G09R24R17E30R14R01R08G19
 140197015.957 6                  26678555.457
        41.800
 114015965.516 7  88843695.68147  21696490.268    21696489.2764   21696492.5534
        46.700          45.1004
 137699884.643 6                  26203405.610
        41.800
 146057357.040 6                  27793791.112
        39.800
 198981809.221 7                  37864970.758
        46.100
 200942431.663 7                  38238087.094
        44.600
 128437338.278 6 100081053.87943  24440813.736    24440813.2714   24440815.7984
        39.200          19.1004
 135306197.243 7                  25747897.357
        43.500
 131033923.514 7                  24934905.631
        46.700
 412906728.233 5                  78573715.693
        33.100
 202126288.634 7                  38463320.196
        45.600
 117649128.729 7  91674775.18947  22387837.565    22387836.9484   22387837.4954
        46.800          43.5004
 107422928.941 8  83706232.72846  20441877.742    20441876.4644   20441876.8064
        48.400          40.6004
 124809751.222 8                  23750467.752
        49.100
 126239133.884 7  98186125.662 6  23648804.434    23648804.264    23648810.934
        42.400          40.600
 107140699.285 8  83486309.46048  20388177.676    20388177.1944   20388176.9614
        49.900          50.5004
 113571680.120 8  88497515.36746  21611935.450    21611935.1024   21611935.6224
        48.600          38.5004
 135015248.213 6 105206685.63942  25692547.175    25692546.7554   25692547.2944
        36.800          17.1004
 127206467.682 6  99122066.82145  24206546.380    24206545.9244   24206550.2194
        39.100          33.5004
 117769108.459 7  91768173.70847  22410701.385    22410700.6974   22410701.2424
        46.600          43.1004
 134331732.269 6 104674087.54244  25562476.718    25562476.3974   25562478.4764
        37.100          25.1004
 122012317.927 7  94898535.994 7  22792907.314    22792907.732    22792914.913
        46.400          43.500
 109909621.120 8                  20546411.049    20546411.069
        48.800
 130070400.454 7                  24751519.651
        47.300
 123647492.568 7  96170317.338 7  23138944.049    23138943.880    23138949.905
        46.500          42.000
 125713573.267 6                  23542068.708    23542069.784
        38.500
 134939691.588 6                  25678158.316
        41.400
 131764580.059 6 102673736.61245  25073957.610    25073957.0204   25073961.2304
        36.700          30.4004
 110994317.458 8  86328987.301 7  20756482.030    20756481.874    20756488.182
        51.800          46.400
 131633188.189 6 102381405.453 5  24598808.408    24598808.316    24598815.079
        41.000          32.200
 144436268.615 6                  27485261.479
        40.700
 116214141.335 8  90388823.662 7  21801469.611    21801469.799    21801476.055
        48.900          43.900
 114324866.807 7  88919387.835 6  21386822.165    21386821.439    21386830.671
        45.200          39.000
 108671742.559 8  84522536.612 7  20293666.912    20293667.518    20293672.666
        49.800          47.100
 130844330.628 5 101956738.78142  24898803.928    24898802.3544   24898805.8904
        34.800          14.8004
 25  1  1  4 18  0.0000000  0 35E34G25E03E08S31S35G13E21E13S48S33G12
                                G20E15R22G05G11G18G06G29G15R07R23E27
                                R15R13E05G09R24R17E30R14R01R08G19
 140226476.456 6                  26684161.466
        41.600
 114033681.917 7  88857500.66047  21699861.599    21699860.6074   21699863.8754
        46.300          45.2004
 137671207.744 6                  26197948.732
        41.500
 146014295.068 6                  27785596.652
        40.200
 198981804.249 7                  37864971.183
        46.000
 200942456.547 7                  38238083.459
        44.400
 128387239.511 6 100042015.84443  24431279.929    24431279.4734   24431282.4954
        39.400          20.0004
 135292683.894 7                  25745325.921
        44.000
 131014349.443 7                  24931181.083
        46.500
 412906527.422 5                  78573684.266
        33.600
 202126270.573 7                  38463321.426
        45.500
 117694948.722 7  91710479.06347  22396556.753    22396556.1144   22396556.7874
        46.700          43.6004
 107440366.664 8  83719820.56646  20445196.245    20445194.9714   20445195.0814
        48.400          40.7004
 124818993.487 8                  23752226.447
        48.900
 126278998.935 7  98217131.805 6  23656272.289    23656272.442    23656279.469
        43.000          41.500
 107119727.018 8  83469967.44548  20384186.580    20384186.0934   20384186.0434
        49.800          50.5004
 113596871.043 8  88517144.64846  21616729.174    21616728.8174   21616729.2914
        48.300          38.6004
 134974813.588 6 105175178.14342  25684851.786    25684851.3624   25684852.5794
        37.500          17.9004
 127245897.627 6  99152791.43845  24214049.914    24214049.4674   24214053.3644
        39.100          33.5004
 117726340.027 7  91734847.65947  22402562.840    22402562.1474   22402562.7234
        46.000          43.2004
 134277303.126 6 104631675.26144  25552119.981    25552119.6334   25552121.2904
        37.300          24.9004
 122060372.761 7  94935911.995 7  22801885.132    22801885.521    22801891.865
        46.700          43.300
 109927005.546 8                  20549661.024    20549661.187
        49.200
 130097628.241 7                  24756700.979
        47.300
 123622454.233 7  96150843.096 7  23134257.269    23134257.432    23134265.285
        44.900          42.000
 125773857.886 6                  23553359.577    23553358.690
        38.000
 134944048.327 6                  25678987.033
        41.200
 131794949.547 6 102697401.20445  25079737.025    25079736.4404   25079740.1184
        36.800          30.6004
 110966840.755 8  86307616.538 7  20751343.759    20751343.738    20751349.617
        51.700          46.300
 131590039.021 6 102347845.042 5  24590744.932    24590744.371    24590752.019
        40.100          34.000
 144483112.862 6                  27494175.952
        40.300
 116239292.583 8  90408385.737 7  21806188.477    21806188.148    21806194.900
        48.500          44.000
 114266391.158 7  88873906.796 6  21375882.509    21375882.688    21375891.280
        45.800          39.000
 108670722.531 8  84521743.278 7  20293476.322    20293476.978    20293482.318
        49.600          47.200
 130896690.302 5 101997538.56642  24908768.123    24908766.5634   24908769.2604
        35.400          15.4004
 25  1  1  4 18 15.0000000  0 35E34G25E03E08S31S35G13E21E13S48S33G12
                                G20E15R22G05G11G18G06G29G15R07R23E27
                                R15R13E05G09R24R17E30R14R01R08G19
 140255935.281 6                  26689767.437
        41.800
 114051535.045 7  88871412.18247  21703258.705    21703257.7174   21703261.1904
        46.700          45.0004
 137642597.493 6                  26192504.112
        41.500
 145971216.594 6                  27777398.444
        39.700
 198981797.803 7                  37864969.609
        46.300
 200942480.641 7                  38238092.192
        44.700
 128337127.609 6 100002967.54243  24421744.361    24421743.8924   24421747.1314
        39.600          19.4004
 135279271.974 7                  25742773.577
        44.000
 130994800.993 7                  24927461.250
        46.700
 412906325.681 5                  78573664.953
        33.800
 202126251.898 7                  38463319.007
        45.500
 117740844.976 7  91746242.35847  22405290.524    22405289.8814   22405290.5284
        46.100          43.3004
 107457909.440 8  83733490.25946  20448534.391    20448533.1224   20448533.3714
        48.300          40.5004
 124828260.067 8                  23753989.933
        49.000
 126318885.799 7  98248154.852 6  23663744.472    23663744.094    23663751.470
        42.500          40.400
 107098886.225 8  83453727.87348  20380220.834    20380220.3564   20380220.1614
        49.400          50.4004
 113622102.733 8  88536805.70246  21621530.533    21621530.1764   21621530.6914
        48.500          38.4004
 134934384.893 6 105143675.28242  25677158.515    25677158.1094   25677159.0864
        36.500          17.9004
 127285329.747 6  99183517.75445  24221553.374    24221552.9414   24221557.0424
        39.400          33.2004
 117683614.890 7  91701555.35547  22394432.675    22394431.9874   22394432.3794
        46.200          43.1004
 134222828.570 6 104589227.60344  25541752.956    25541752.6084   25541755.4124
        36.900          24.9004
 122108552.591 7  94973385.215 7  22810885.108    22810885.672    22810891.842
        46.600          42.800
 109944446.140 8                  20552921.215    20552921.317
        49.200
 130124939.427 7                  24761898.380
        47.400
 123597586.617 7  96131501.626 6  23129602.767    23129603.421    23129611.171
        46.100          41.900
 125834143.977 6                  23564649.729    23564649.161
        38.600
 134948507.954 6                  25679836.022
        41.400
 131825428.368 6 102721150.96745  25085536.818    25085536.2334   25085539.9204
        38.000          30.3004
 110939398.674 8  86286272.704 7  20746211.856    20746211.979    20746217.875
        51.600          46.400
 131546871.751 6 102314270.543 5  24582677.615    24582677.519    24582684.546
        40.100          34.300
 144529959.052 6                  27503090.372
        40.600
 116264606.181 8  90428074.073 7  21810937.680    21810937.449    21810943.549
        49.400          44.000
 114208007.388 7  88828497.226 6  21364960.583    21364960.361    21364969.145
        45.600          38.900
 108669907.473 8  84521109.347 7  20293324.857    20293324.862    20293330.010
        50.000          47.300
 130949078.674 5 102038360.61342  24918736.212    24918734.6384   24918738.3584
        33.900          15.7004
 25  1  1  4 18 30.0000000  0 35E34G25E03E08S31S35G13E21E13S48S33G12
                                G20E15R22G05G11G18G06G29G15R07R23E27
                                R15R13E05G09R24R17E30R14R01R08G19
 140285390.233 7                  26695372.320
        42.200
 114069522.458 7  88885428.33947  21706681.732    21706680.7444   21706684.0744
        46.400          45.0004
 137614051.867 6                  26187072.150
        41.400
 145928119.663 6                  27769198.281
        39.600
 198981788.717 7                  37864968.920
        46.200
 200942500.877 7                  38238093.793
        44.700
 128287000.719 6  99963907.55843  24412205.079    24412204.5974   24412208.3334
        39.000          19.7004
 135265959.335 7                  25740240.405
        43.800
 130975275.843 7                  24923745.546
        46.700
 412906120.709 5                  78573632.395
        33.200
 202126229.205 7                  38463311.235
        45.600
 117786815.045 7  91782063.18147  22414038.417    22414037.7694   22414038.1984
        46.700          43.4004
 107475554.695 8  83747239.80446  20451892.247    20451890.9824   20451891.1484
        48.200          40.5004
 124837548.630 8                  23755757.390
        48.800
 126358792.214 7  98279193.113 6  23671220.669    23671221.112    23671227.017
        44.000          40.500
 107078174.847 8  83437589.14648  20376279.609    20376279.1364   20376278.8954
        49.800          50.5004
 113647372.871 8  88556496.71046  21626339.210    21626338.8484   21626339.5014
        48.000          38.5004
 134893959.769 6 105112175.20443  25669465.421    25669465.0194   25669466.7554
        37.800          19.0004
 127324761.810 6  99214244.03145  24229056.797    24229056.4004   24229060.6664
        38.600          33.0004
 117640931.207 7  91668295.35947  22386310.030    22386309.3514   22386309.8914
        46.300          43.2004
 134168306.643 5 104546743.03343  25531377.511    25531377.1454   25531379.7724
        35.400          23.1004
 122156854.234 7  95010953.202 7  22819908.268    22819908.324    22819915.357
        46.600          43.300
 109961940.357 8                  20556191.423    20556191.719
        49.500
 130152331.558 7                  24767110.807
        47.100
 123572887.586 7  96112291.284 6  23124981.735    23124980.939    23124988.963
        44.800          41.900
 125894428.640 6                  23575938.120    23575937.835
        38.200
 134953068.166 6                  25680703.729
        41.600
 131856013.769 6 102744983.63444  25091357.115    25091356.5434   25091359.9874
        36.700          29.5004
 110911989.393 8  86264954.372 7  20741086.226    20741085.948    20741092.090
        51.200          46.400
 131503684.102 6 102280680.154 6  24574606.879    24574607.479    24574614.349
        41.300          36.100
 144576804.675 6                  27512004.885
        40.700
 116290079.869 8  90447886.927 7  21815715.975    21815716.071    21815721.741
        49.300          43.400
 114149713.934 7  88783157.907 6  21354055.886    21354055.410    21354064.539
        45.400          39.300
 108669295.205 8  84520633.144 7  20293210.246    20293210.613    20293215.778
        50.100          47.200
 131001493.413 5 102079203.23242  24928710.721    24928709.1614   24928712.3974
        35.100          15.0004
 25  1  1  4 18 45.0000000  0 35E34G25E03E08S31S35G13E21E13S48S33G12
                                G20E15R22G05G11G18G06G29G15R07R23E27
                                R15R13E05G09R24R17E30R14R01R08G19
 140314850.089 6                  26700978.534
        41.700
 114087652.709 7  88899555.79847  21710131.804    21710130.8214   21710134.1284
        46.000          45.1004
 137585579.904 6                  26181653.553
        40.900
 145885013.328 6                  27760995.099
        39.600
 198981784.831 7                  37864970.897
        46.000
 200942526.841 7                  38238099.311
        44.500
 128236868.209 6  99924843.18743  24402665.108    24402664.6354   24402668.0514
        38.400          19.5004
 135252754.861 7                  25737727.447
        43.700
 130955782.746 7                  24920036.080
        46.200
 412905921.743 5                  78573595.035
        32.600
 202126212.943 7                  38463312.067
        45.800
 117832867.417 7  91817948.12347  22422801.964    22422801.3384   22422801.6844
        46.300          43.4004
 107493310.928 8  83761075.82846  20455271.113    20455269.8444   20455270.0674
        48.100          40.7004
 124846867.940 8                  23757530.907
        48.900
 126398727.196 7  98310253.599 6  23678701.886    23678701.940    23678708.051
        43.100          40.500
 107057601.440 8  83421557.92448  20372364.669    20372364.2004   20372363.8874
        49.200          50.6004
 113672690.200 7  88576224.49146  21631157.296    21631156.9344   21631157.1914
        47.900          38.5004
 134853547.083 6 105080684.77843  25661775.369    25661774.9724   25661777.1744
        37.100          18.4004
 127364202.573 6  99244977.08445  24236562.537    24236562.1224   24236565.6634
        38.900          32.7004
 117598297.839 7  91635074.56247  22378197.261    22378196.5954   22378197.0224
        45.800          43.4004
 134113746.624 6 104504228.73944  25520995.939    25520995.5734   25520996.6334
        36.100          24.3004
 122205286.604 7  95048622.839 7  22828955.890    22828955.910    22828963.220
        46.500          43.800
 109979497.268 8                  20559473.749    20559473.729
        48.900
 130179813.288 7                  24772340.509
        47.000
 123548366.430 7  96093219.290 6  23120392.736    23120393.202    23120400.497
        45.900          41.900
 125954720.490 6                  23587229.671    23587229.205
        38.500
 134957737.813 6                  25681592.354
        41.100
 131886715.295 6 102768907.03445  25097198.925    25097198.3534   25097202.4664
        38.100          31.3004
 110884621.913 8  86243668.574 7  20735968.180    20735968.189    20735974.488
        51.600          46.400
 131460484.782 6 102247080.746 5  24566534.624    24566534.832    24566541.577
        39.800          34.800
 144623658.323 6                  27520920.902
        40.900
 116315721.891 8  90467830.721 7  21820526.041    21820526.200    21820532.389
        49.000          43.700
 114091520.043 7  88737896.043 6  21343170.114    21343169.303    21343177.945
        46.100          39.500
 108668894.670 8  84520321.637 7  20293135.243    20293135.780    20293140.959
        50.000          47.100
 131053943.084 5 102120073.06942  24938692.005    24938690.4314   24938693.3454
        34.900          15.6004
 25  1  1  4 19  0.0000000  0 35E34G25E03E08S31S35G13E21E13S48S33G12
                                G20E15R22G05G11G18G06G29G15R07R23E27
                                R15R13E05G09R24R17E30R14R01R08G19
 140344306.207 7                  26706583.415
        42.100
 114105916.957 7  88913787.67347  21713607.476    21713606.4974   21713609.7104
        46.200          45.2004
 137557173.182 6                  26176248.897
        41.700
 145841889.144 6                  27752788.783
        40.100
 198981777.555 7                  37864965.544
        46.000
 200942550.212 7                  38238102.038
        44.600
 128186721.737 6  99885767.98643  24393122.704    24393122.2264   24393126.1714
        39.400          20.4004
 135239650.017 7                  25735233.989
        44.000
 130936313.026 7                  24916331.177
        46.600
 412905718.914 5                  78573577.113
        33.400
 202126193.117 7                  38463300.932
        45.000
 117878992.853 7  91853890.00847  22431579.374    22431578.7404   22431579.2384
        46.200          43.6004
 107511169.369 8  83774991.49646  20458669.308    20458668.0394   20458668.4244
        48.100          40.7004
 124856209.314 8                  23759308.274
        49.100
 126438681.936 7  98341329.458 6  23686186.633    23686186.269    23686193.068
        43.400          40.300
 107037157.710 8  83405627.75548  20368474.227    20368473.7544   20368473.5714
        49.800          50.7004
 113698045.971 8  88595982.22546  21635982.188    21635981.8224   21635982.2914
        48.100          38.6004
 134813138.240 6 105049197.35143  25654086.232    25654085.8214   25654087.6644
        36.300          18.1004
 127403643.388 6  99275710.17445  24244067.402    24244066.9784   24244071.1164
        38.600          33.0004
 117555706.530 7  91601886.53847  22370092.295    22370091.6434   22370092.1574
        45.600          43.5004
 134059139.979 6 104461678.15144  25510604.491    25510604.1164   25510605.5084
        36.600          24.8004
 122253840.018 7  95086386.614 7  22838026.471    22838026.162    22838032.243
        46.100          42.900
 109997108.151 8                  20562765.759    20562765.903
        49.300
 130207375.769 7                  24777585.550
        47.300
 123524014.423 7  96074278.827 7  23115836.205    23115835.966    23115843.144
        45.400          42.300
 126015009.889 6                  23598519.320    23598519.292
        37.800
 134962508.336 6                  25682500.025
        41.300
 131917523.031 6 102792913.10245  25103061.683    25103061.1024   25103064.7364
        36.400          31.1004
 110857287.498 8  86222408.483 7  20730856.960    20730856.789    20730862.896
        51.800          46.500
 131417265.134 6 102213465.505 5  24558457.018    24558457.512    24558464.695
        37.600          33.300
 144670511.151 6                  27529837.140
        40.100
 116341523.149 8  90487898.363 7  21825366.477    21825367.018    21825372.911
        49.100          43.800
 114033417.496 7  88692705.223 6  21332299.497    21332299.978    21332308.731
        45.400          39.000
 108668697.151 8  84520168.026 7  20293098.451    20293098.903    20293104.032
        50.200          47.000
 131106419.052 5 102160963.36242  24948676.277    24948674.6724   24948679.3994
        33.400          14.9004
 25  1  1  4 19 15.0000000  0 35E34G25E03E08S31S35G13E21E13S48S33G12
                                G20E15R22G05G11G18G06G29G15R07R23E27
                                R15R13E05G09R24R17E30R14R01R08G19
 140373762.073 6                  26712189.115
        41.300
 114124318.451 7  88928126.48847  21717109.211    21717108.2284   21717111.4114
        46.100          45.0004
 137528835.429 6                  26170855.799
        41.100
 145798750.892 6                  27744580.091
        39.400
 198981771.544 7                  37864960.558
        45.800
 200942573.639 7                  38238111.670
        44.900
 128136565.097 6  99846684.87543  24383578.288    24383577.8324   24383581.4214
        39.500          20.1004
 135226648.395 7                  25732759.555
        43.500
 130916870.134 7                  24912631.443
        46.500
 412905516.281 5                  78573549.849
        33.200
 202126172.980 7                  38463299.631
        45.400
 117925194.478 7  91889891.26347  22440371.095    22440370.4524   22440371.1764
        46.300          43.5004
 107529133.311 8  83788989.37046  20462087.750    20462086.4814   20462086.8194
        48.300          40.6004
 124865576.185 8                  23761090.895
        48.900
 126478660.034 7  98372423.448 6  23693677.098    23693676.979    23693682.531
        43.000          40.600
 107016846.993 8  83389801.22948  20364609.121    20364608.6484   20364608.5864
        49.800          50.7004
 113723443.625 7  88615772.60146  21640815.296    21640814.9394   21640815.3154
        47.800          38.5004
 134772736.677 6 105017715.62543  25646397.733    25646397.3184   25646399.8674
        38.300          19.2004
 127443087.706 6  99306445.99345  24251573.616    24251573.1834   24251577.2004
        38.200          32.4004
 117513160.948 7  91568734.14747  22361996.254    22361995.6114   22361995.9534
        46.100          43.4004
 134004490.561 6 104419094.22744  25500204.392    25500204.0124   25500206.2264
        38.300          25.7004
 122302517.861 7  95124247.127 7  22847120.139    22847120.486    22847126.012
        47.300          43.000
 110014776.606 8                  20566068.936    20566068.907
        49.200
 130235022.323 7                  24782846.319
        46.900
 123499835.461 7  96055472.955 6  23111310.755    23111311.341    23111317.880
        45.600          41.900
 126075300.304 6                  23609809.097    23609809.611
        37.700
 134967382.963 6                  25683427.778
        41.300
 131948440.788 6 102817004.96445  25108945.694    25108945.1004   25108947.6614
        37.700          31.2004
 110829989.897 8  86201177.006 7  20725751.521    20725752.048    20725758.154
        52.200          46.400
 131374028.867 7 102179837.361 6  24550378.081    24550377.505    24550384.469
        42.400          36.500
 144717366.394 6                  27538752.812
        40.500
 116367486.805 8  90508092.302 7  21830237.323    21830237.482    21830243.667
        48.700          43.800
 113975410.643 7  88647588.793 6  21321448.368    21321448.468    21321457.382
        46.000          39.500
 108668706.207 8  84520175.060 7  20293099.953    20293100.396    20293105.682
        49.700          47.200
 131158924.594 5 102201876.72042  24958669.154    24958667.5724   24958670.8734
        33.700          14.9004
 25  1  1  4 19 30.0000000  0 35E34G25E03E08S31S35G13E21E13S48S33G12
                                G20E15R22G05G11G18G06G29G15R07R23E27
                                R15R13E05G09R24R17E30R14R01R08G19
 140403216.499 6                  26717794.054
        41.000
 114142855.748 7  88942571.13047  21720636.667    21720635.6884   21720638.9944
        46.400          45.1004
 137500565.657 6                  26165476.190
        41.200
 145755597.591 6                  27736368.246
        39.700
 198981763.994 7                  37864964.887
        45.600
 200942596.188 7                  38238113.141
        44.500
 128086397.588 6  99807593.29243  24374031.564    24374031.1084   24374034.2264
        39.200          20.2004
 135213748.880 7                  25730304.910
        43.800
 130897452.855 7                  24908936.506
        46.200
 412905313.069 5                  78573526.981
        33.600
 202126153.097 7                  38463298.978
        45.600
 117971470.678 7  91925950.62347  22449177.357    22449176.7234   22449177.2554
        46.400          43.6004
 107547201.247 8  83803068.28046  20465525.882    20465524.6084   20465525.0314
        48.300          40.7004
 124874967.317 8                  23762877.949
        48.800
 126518660.316 7  98403534.726 6  23701169.185    23701169.867    23701176.519
        43.700          40.800
 106996668.317 8  83374077.58748  20360769.303    20360768.8254   20360768.7104
        49.700          50.8004
 113748881.886 8  88635594.61846  21645655.916    21645655.5544   21645656.0344
        48.000          38.6004
 134732341.239 6 104986238.67943  25638710.556    25638710.1454   25638712.3214
        38.200          19.0004
 127482534.307 6  99337183.58545  24259080.249    24259079.8114   24259083.5654
        37.200          32.5004
 117470660.237 7  91535616.71947  22353908.737    22353908.1034   22353908.3984
        46.100          43.6004
 133949797.498 6 104376476.28244  25489796.495    25489796.1064   25489798.6594
        37.300          26.3004
 122351318.330 7  95162203.027 7  22856236.369    22856236.000    22856242.448
        46.700          42.700
 110032501.861 8                  20569382.074    20569382.236
        48.900
 130262751.591 7                  24788123.208
        47.100
 123475828.652 7  96036801.004 6  23106818.697    23106818.564    23106825.134
        45.500          41.500
 126135589.855 6                  23621100.041    23621099.729
        38.000
 134972360.578 6                  25684374.985
        41.300
 131979466.810 6 102841181.13345  25114849.425    25114848.8404   25114851.3974
        38.600          31.2004
 110802727.892 8  86179973.238 7  20720653.545    20720653.642    20720659.557
        51.300          46.500
 131330774.361 6 102146195.027 5  24542295.646    24542294.117    24542302.293
        40.100          33.200
 144764222.676 6                  27547669.101
        40.300
 116393611.081 8  90528411.167 7  21835138.737    21835138.935    21835144.283
        50.200          43.700
 113917498.590 7  88602546.137 6  21310615.299    21310615.131    21310623.562
        45.400          39.600
 108668920.439 8  84520341.697 7  20293139.884    20293140.636    20293145.726
        50.000          47.200
 131211458.442 5 102242812.19142  24968666.156    24968664.5784   24968667.7584
        35.500          16.1004
 25  1  1  4 19 45.0000000  0 35E34G25E03E08S31S35G13E21E13S48S33G12
                                G20E15R22G05G11G18G06G29G15R07R23E27
                                R15R13E05G09R24R17E30R14R01R08G19
 140432673.714 6                  26723399.681
        41.300
 114161532.897 7  88957124.74947  21724190.561    21724189.5734   21724193.1824
        46.200          45.3004
 137472368.340 6                  26160110.635
        41.200
 145712433.723 6                  27728154.057
        39.600
 198981759.954 7                  37864963.429
        46.000
 200942622.519 7                  38238119.281
        44.700
 128036223.825 6  99768496.87843  24364484.143    24364483.6964   24364486.6764
        39.200          20.4004
 135200955.810 7                  25727870.618
        43.800
 130878065.373 7                  24905246.884
        46.600
 412905113.330 5                  78573494.200
        33.900
 202126136.077 7                  38463294.864
        45.300
 118017825.517 7  91962071.26347  22457998.304    22457997.6874   22457998.3394
        46.700          43.7004
 107565377.237 8  83817231.39346  20468985.001    20468983.7234   20468983.8404
        48.200          40.9004
 124884386.889 8                  23764670.527
        49.000
 126558687.068 7  98434666.579 6  23708666.931    23708667.436    23708674.294
        42.400          40.900
 106976626.032 8  83358460.22648  20356955.584    20356955.1154   20356954.7964
        49.600          51.0004
 113774364.932 8  88655451.53046  21650505.077    21650504.7154   21650505.3074
        48.000          38.7004
 134691956.103 6 104954769.71743  25631025.239    25631024.8194   25631026.6264
        36.000          18.1004
 127521987.415 6  99367926.25445  24266588.135    24266587.7294   24266591.1784
        38.200          32.7004
 117428208.866 7  91502537.73347  22345830.076    22345829.4334   22345830.1614
        46.100          43.9004
 133895065.183 6 104333827.78144  25479381.706    25479381.3094   25479384.2144
        37.700          25.5004
 122400245.404 7  95200257.436 7  22865376.136    22865376.274    22865382.243
        46.500          42.600
 110050287.882 8                  20572707.067    20572707.402
        48.600
 130290567.613 7                  24793416.255
        46.900
 123451998.560 7  96018266.497 6  23102359.455    23102359.551    23102365.379
        45.300          40.800
 126195882.096 6                  23632392.839    23632391.658
        38.600
 134977445.578 6                  25685342.541
        41.400
 132010605.348 6 102865444.98645  25120774.560    25120773.9754   25120776.8334
        37.000          30.7004
 110775506.016 8  86158800.668 7  20715563.222    20715563.156    20715569.348
        52.100          46.500
 131287506.374 6 102112542.131 6  24534208.623    24534209.258    24534216.325
        41.700          36.200
 144811084.008 6                  27556586.659
        40.300
 116419900.370 8  90548858.382 7  21840069.483    21840069.927    21840076.148
        48.700          43.800
 113859686.143 7  88557580.929 6  21299799.994    21299799.957    21299808.482
        46.100          39.300
 108669344.328 8  84520671.392 7  20293219.447    20293219.681    20293224.963
        49.700          47.300
 131264024.601 6 102283772.80042  24978669.325    24978667.7564   24978671.1084
        36.400          17.0004
 25  1  1  4 20  0.0000000  0 35E34G25E03E08S31S35G13E21E13S48S33G12
                                G20E15R22G05G11G18G06G29G15R07R23E27
                                R15R13E05G09R24R17E30R14R01R08G19
 140462125.837 6                  26729003.969
        41.600
 114180341.758 7  88971780.98947  21727769.948    21727768.9604   21727772.3854
        46.700          45.2004
 137444235.855 6                  26154757.018
        41.000
 145669251.609 6                  27719937.294
        39.500
 198981751.717 7                  37864959.566
        46.000
 200942644.249 7                  38238124.294
        44.700
 127986036.205 6  99729389.66543  24354933.817    24354933.3614   24354936.5614
        39.600          20.2004
 135188261.407 7                  25725454.799
        43.700
 130858699.756 7                  24901561.764
        46.600
 412904908.634 5                  78573471.323
        33.100
 202126114.826 7                  38463292.275
        45.500
 118064250.646 7  91998246.67247  22466832.525    22466831.9044   22466832.7184
        46.300          43.6004
 107583653.127 8  83831472.34346  20472462.534    20472461.2604   20472461.6054
        48.300          40.8004
 124893826.989 8                  23766466.935
        49.000
 126598732.317 7  98465812.797 6  23716169.665    23716169.607    23716176.532
        42.800          40.300
 106956712.392 8  83342943.10848  20353165.975    20353165.5064   20353165.3564
        49.900          51.0004
 113799884.799 8  88675337.13546  21655361.492    21655361.1304   21655361.5254
        48.300          38.6004
 134651573.469 6 104923302.74543  25623340.878    25623340.4814   25623342.1744
        37.300          18.8004
 127561439.112 6  99398667.82245  24274094.874    24274094.4634   24274098.8944
        38.600          32.6004
 117385799.388 7  91469491.39247  22337759.891    22337759.2524   22337759.7554
        46.300          43.8004
 133840286.346 6 104291143.00344  25468957.627    25468957.2254   25468960.1914
        38.800          27.1004
 122449290.455 7  95238403.603 7  22874538.518    22874538.727    22874544.437
        47.100          42.900
 110068126.880 8                  20576042.211    20576042.235
        49.300
 130318462.326 7                  24798724.386
        47.300
 123428337.306 7  95999863.307 6  23097930.655    23097931.245    23097937.972
        46.000          41.700
 126256168.806 6                  23643679.398    23643680.001
        37.800
 134982629.963 6                  25686329.414
        41.300
 132041848.454 6 102889790.48945  25126719.928    25126719.3524   25126722.3744
        37.100          30.8004
 110748316.181 8  86137653.022 7  20710478.381    20710478.304    20710484.603
        52.100          46.700
 131244216.512 6 102078872.266 5  24526120.024    24526120.124    24526126.641
        41.400          34.600
 144857942.283 6                  27565503.536
        40.100
 116446345.828 8  90569427.067 7  21845031.209    21845031.291    21845037.127
        49.000          43.600
 113801966.122 7  88512687.618 6  21289001.976    21289002.321    21289010.793
        46.300          39.400
 108669969.841 8  84521157.907 7  20293336.044    20293336.596    20293341.525
        50.200          47.000
 131316614.913 5 102324752.14542  24988676.833    24988675.2594   24988678.7744
        35.000          17.1004
 25  1  1  4 20 15.0000000  0 35E34G25E03E08S31S35G13E21E13S48S33G12
                                G20E15R22G05G11G18G06G29G15R07R23E27
                                R15R13E05G09R24R17E30R14R01R08G19
 140491580.893 6                  26734609.131
        41.700
 114199290.158 7  88986545.96747  21731375.816    21731374.8244   21731378.0834
        46.400          45.0004
 137416176.431 6                  26149417.592
        41.900
 145626059.557 6                  27711717.704
        39.800
 198981746.954 7                  37864957.723
        45.600
 200942669.617 7                  38238126.985
        44.300
 127935842.997 6  99690278.06143  24345381.660    24345381.2134   24345385.4394
        39.800          20.5004
 135175673.780 7                  25723059.575
        44.500
 130839363.997 7                  24897882.431
        46.900
 412904707.670 5                  78573441.618
        32.900
 202126097.775 7                  38463292.329
        45.400
 118110753.671 7  92034482.78147  22475682.176    22475681.5684   22475681.9704
        46.600          43.4004
 107602036.750 8  83845797.24446  20475961.002    20475959.7334   20475959.8674
        48.300          40.7004
 124903295.582 8                  23768268.663
        49.300
 126638804.317 7  98496979.875 6  23723675.735    23723676.563    23723683.246
        42.700          40.600
 106936935.386 8  83327532.45848  20349402.490    20349402.0174   20349401.9134
        49.700          50.8004
 113825449.419 8  88695257.61546  21660226.125    21660225.7544   21660226.3204
        48.200          38.5004
 134611201.297 6 104891843.90943  25615658.250    25615657.8304   25615659.1794
        36.200          18.0004
 127600897.430 6  99429414.54045  24281603.314    24281602.8994   24281607.6914
        36.400          32.3004
 117343439.937 7  91436484.03147  22329699.422    22329698.8014   22329699.0334
        46.300          43.7004
 133785469.189 6 104248428.36944  25458526.474    25458526.0684   25458528.5584
        36.500          25.9004
 122498461.253 7  95276647.557 7  22883723.072    22883722.997    22883730.370
        45.600          43.000
 110086027.123 8                  20579388.327    20579388.704
        49.100
 130346443.585 7                  24804049.226
        47.400
 123404853.273 7  95981597.976 7  23093535.842    23093535.846    23093543.807
        44.200          42.200
 126316457.397 6                  23654971.657    23654970.803
        38.100
 134987921.802 6                  25687336.264
        41.500
 132073203.576 6 102914223.21445  25132685.888    25132685.2944   25132689.2364
        36.100          30.0004
 110721166.784 8  86116536.834 7  20705400.900    20705401.394    20705407.389
        51.900          46.500
 131200913.001 6 102045191.768 5  24518026.461    24518027.838    24518033.621
        41.000          34.600
 144904805.288 6                  27574421.145
        40.300
 116472955.451 8  90590123.436 7  21850023.011    21850023.071    21850029.018
        48.700          43.700
 113744346.988 7  88467872.759 6  21278223.472    21278223.507    21278231.504
        46.200          39.300
 108670805.111 8  84521807.579 7  20293491.870    20293492.334    20293497.459
        49.900          47.000
 131369237.434 5 102365756.64542  24998690.128    24998688.5724   24998692.8524
        35.400          17.3004
 25  1  1  4 20 30.0000000  0 35E34G25E03E08S31S35G13E21E13S48S33G12
                                G20E15R22G05G11G18G06G29G15R07R23E27
                                R15R13E05G09R24R17E30R14R01R08G19
 140521032.015 6                  26740213.338
        41.800
 114218370.961 7  89001414.12047  21735006.738    21735005.7554   21735008.9824
        46.700          44.7004
 137388183.431 6                  26144090.513
        41.300
 145582850.929 6                  27703495.024
        39.700
 198981739.282 7                  37864959.042
        45.700
 200942691.691 7                  38238130.992
        44.400
 127885637.813 6  99651157.13443  24335828.081    24335827.6434   24335831.8624
        40.100          20.2004
 135163186.134 7                  25720683.214
        44.400
 130820051.162 7                  24894207.367
        46.400
 412906103.601 5                  78573418.187
        32.800
 202126076.775 7                  38463283.171
        45.300
 118157327.238 7  92070773.86147  22484544.485    22484543.8774   22484544.6324
        46.700          43.3004
 107620521.046 8  83860200.59446  20479478.256    20479476.9874   20479477.3214
        48.500          40.5004
 124912785.762 8                  23770074.522
        48.900
 126678896.022 7  98528162.254 6  23731187.121    23731187.292    23731193.850
        43.200          40.300
 106917288.113 8  83312222.89948  20345663.684    20345663.2154   20345663.1584
        50.300          50.7004
 113851051.897 8  88715207.59246  21665098.211    21665097.8454   21665098.3494
        48.400          38.2004
 134570832.754 6 104860387.88343  25607977.161    25607976.7324   25607977.5534
        37.200          18.1004
 127640355.463 6  99460161.04745  24289112.540    24289112.1514   24289116.6464
        37.600          32.2004
 117301124.002 7  91403510.58447  22321646.650    22321646.0244   22321646.7194
        46.600          43.5004
 133730606.727 6 104205678.45244  25448086.191    25448085.7854   25448088.5984
        37.600          24.8004
 122547750.048 7  95314983.261 7  22892931.173    22892931.544    22892937.723
        46.500          42.500
 110103981.549 8                  20582744.136    20582744.558
        48.400
 130374504.321 7                  24809388.819
        47.100
 123381539.737 7  95963465.228 6  23089173.442    23089172.915    23089180.219
        44.700          41.900
 126376740.623 6                  23666260.691    23666259.267
        37.600
 134993314.079 6                  25688362.210
        41.200
 132104663.400 6 102938737.41545  25138672.515    25138671.9034   25138675.8354
        37.200          30.5004
 110694050.932 8  86095446.747 7  20700330.320    20700330.578    20700336.390
        51.800          46.500
 131157588.921 6 102011495.265 5  24509931.012    24509930.986    24509938.079
        40.700          35.400
 144951665.932 6                  27583338.737
        40.100
 116499721.703 8  90610941.628 7  21855044.151    21855043.916    21855050.776
        48.000          43.800
 113686822.390 7  88423131.455 6  21267462.479    21267462.390    21267471.175
        46.500          39.700
 108671843.348 8  84522615.112 7  20293686.009    20293686.429    20293691.425
        50.000          47.000
 131421884.924 5 102406780.54742  25008709.312    25008707.7924   25008711.4024
        34.500          15.9004
 25  1  1  4 20 45.0000000  0 35E34G25E03E08S31S35G13E21E13S48S33G12
                                G20E15R22G05G11G18G06G29G15R07R23E27
                                R15R13E05G09R24R17E30R14R01R08G19
 140550485.077 6                  26745818.148
        41.900
 114237589.844 7  89016389.86947  21738663.660    21738662.6684   21738666.2154
        46.400          44.8004
 137360262.990 6                  26138777.718
        41.300
 145539631.880 6                  27695271.133
        39.300
 198981733.486 7                  37864959.999
        46.100
 200942715.965 7                  38238131.426
        44.600
 127835427.031 6  99612031.83043  24326273.804    24326273.3574   24326277.0244
        38.800          20.1004
 135150804.489 7                  25718326.794
        44.400
 130800767.138 7                  24890537.747
        46.500
 412905901.637 5                  78573387.842
        33.500
 202126058.125 7                  38463277.461
        45.400
 118203976.951 7  92107124.27047  22493421.550    22493420.9384   22493421.8314
        46.200          43.3004
 107639111.654 8  83874686.78346  20483015.879    20483014.6014   20483014.9874
        48.600          40.5004
 124922303.360 8                  23771885.795
        48.900
 126719013.432 7  98559364.642 6  23738702.231    23738702.739    23738709.159
        43.000          39.700
 106897776.342 8  83297018.93148  20341950.691    20341950.2134   20341950.1954
        49.900          50.7004
 113876698.000 8  88735191.55546  21669978.415    21669978.0494   21669978.6924
        48.400          38.2004
 134530473.748 6 104828939.29543  25600296.296    25600295.8454   25600297.4214
        37.400          18.1004
 127679819.054 6  99490911.88145  24296620.981    24296620.5924   24296626.1054
        38.200          32.1004
 117258857.655 7  91370575.77347  22313603.694    22313603.0684   22313603.7374
        46.400          43.6004
 133675705.387 6 104162898.22044  25437639.389    25437638.9744   25437640.7234
        38.000          25.4004
 122597162.828 7  95353415.472 7  22902161.680    22902161.974    22902168.037
        47.000          42.300
 110121996.184 8                  20586112.210    20586112.240
        48.200
 130402650.251 7                  24814744.996
        47.200
 123358402.891 7  95945469.908 7  23084843.708    23084843.879    23084851.254
        45.700          42.200
 126437023.752 6                  23677550.064    23677548.934
        37.600
 134998812.739 6                  25689408.625
        41.400
 132136233.834 6 102963337.84345  25144680.096    25144679.4934   25144683.4474
        37.700          30.0004
 110666974.775 8  86074387.531 7  20695267.058    20695267.060    20695273.404
        51.600          46.600
 131114250.277 6 101977787.443 5  24501831.470    24501831.630    24501839.448
        40.700          35.000
 144998529.892 6                  27592256.333
        40.500
 116526650.333 8  90631886.113 7  21860096.432    21860096.143    21860102.148
        48.900          44.000
 113629398.922 7  88378468.779 6  21256719.778    21256719.894    21256728.303
        46.300          39.100
 108673090.217 8  84523584.897 7  20293918.740    20293919.093    20293924.495
        50.100          47.100
 131474563.297 5 102447828.58642  25018733.966    25018732.4864   25018735.9704
        34.900          14.6004
 25  1  1  4 21  0.0000000  0 35E34G25E03E08S31S35G13E21E13S48S33G12
                                G20E15R22G05G11G18G06G29G15R07R23E27
                                R15R13E05G09R24R17E30R14R01R08G19
 140579936.740 6                  26751422.446
        41.000
 114256943.207 7  89031470.39847  21742346.761    21742345.7694   21742349.0934
        46.300          44.8004
 137332411.966 6                  26133477.579
        41.300
 145496399.259 6                  27687044.023
        40.000
 198981727.178 7                  37864956.498
        46.000
 200942740.286 7                  38238134.923
        44.500
 127785207.689 6  99572899.86943  24316717.876    24316717.4074   24316720.3624
        38.800          19.6004
 135138525.560 7                  25715990.430
        43.800
 130781508.505 7                  24886872.655
        46.500
 412905698.296 5                  78573363.074
        33.200
 202126039.392 7                  38463276.209
        45.600
 118250699.178 7  92143531.18847  22502312.866    22502312.2724   22502312.8354
        46.200          43.3004
 107657805.000 8  83889253.02646  20486572.904    20486571.6214   20486572.2354
        48.400          40.6004
 124931844.985 8                  23773701.248
        48.800
 126759153.235 7  98590584.415 6  23746222.090    23746223.087    23746228.952
        43.900          40.300
 106878397.247 8  83281918.34548  20338262.874    20338262.3964   20338262.4714
        50.100          50.8004
 113902384.353 8  88755206.89146  21674866.378    21674866.0124   21674866.6804
        48.200          38.2004
 134490120.927 6 104797495.53943  25592617.570    25592617.1014   25592618.8714
        37.300          18.4004
 127719284.859 6  99521664.44145  24304132.051    24304131.6764   24304136.0164
        37.500          32.1004
 117216637.641 7  91337677.06647  22305569.702    22305569.0854   22305569.5104
        46.200          43.7004
 133620761.974 6 104120085.18444  25427183.082    25427182.6584   25427184.5724
        38.900          26.0004
 122646695.288 7  95391940.692 7  22911415.159    22911414.888    22911421.412
        46.300          42.400
 110140067.886 8                  20589490.852    20589490.766
        48.600
 130430877.827 7                  24820116.409
        46.900
 123335439.643 7  95927609.601 7  23080546.397    23080546.771    23080554.110
        45.600          42.200
 126497302.852 6                  23688836.975    23688836.217
        36.900
 135004414.446 6                  25690474.577
        40.800
 132167911.210 6 102988021.50344  25150708.334    25150707.7404   25150711.1494
        37.200          29.3004
 110639934.903 8  86053356.513 7  20690210.276    20690210.581    20690216.808
        51.900          46.800
 131070893.645 6 101944065.603 6  24493729.434    24493730.476    24493737.713
        41.700          36.100
 145045393.642 6                  27601174.275
        40.100
 116553737.342 8  90652953.775 7  21865176.884    21865177.109    21865183.678
        48.900          43.900
 113572073.709 7  88333882.520 6  21245996.414    21245996.594    21246004.820
        46.500          39.600
 108674542.471 8  84524714.437 7  20294189.848    20294190.422    20294195.475
        49.900          47.200
 131527269.053 6 102488897.93442  25028763.216    25028761.7234   25028765.6904
        36.000          15.5004
 25  1  1  4 21 15.0000000  0 35E34G25E03E08S31S35G13E21E13S48S33G12
                                G20E15R22G05G11G18G06G29G15R07R23E27
                                R15R13E05G09R24R17E30R14R01R08G19
 140609388.345 6                  26757027.671
        41.900
 114276432.176 7  89046656.60147  21746055.480    21746054.4924   21746057.7764
        46.400          45.0004
 137304631.957 6                  26128191.314
        41.100
 145453154.650 6                  27678814.927
        40.100
 198981722.028 7                  37864957.625
        45.900
 200942764.063 7                  38238146.339
        44.700
 127734981.420 6  99533762.52243  24307159.627    24307159.1674   24307162.7334
        39.600          20.6004
 135126350.785 7                  25713673.805
        43.800
 130762276.592 7                  24883213.124
        46.800
 412905495.260 5                  78573347.911
        33.500
 202126020.846 7                  38463277.859
        45.400
 118297494.768 7  92179995.26247  22511217.809    22511217.2154   22511217.7714
        46.300          43.5004
 107676602.321 8  83903900.29146  20490150.240    20490148.9574   20490149.2644
        48.200          40.7004
 124941411.969 8                  23775521.850
        49.000
 126799316.784 7  98621822.630 6  23753747.001    23753746.713    23753752.672
        43.100          40.100
 106859152.118 8  83266922.14448  20334601.048    20334600.5754   20334600.2574
        49.800          51.0004
 113928112.213 8  88775254.56246  21679762.348    21679761.9864   21679762.5484
        48.200          38.3004
 134449775.647 6 104766057.65143  25584940.419    25584939.9284   25584941.5654
        37.700          19.1004
 127758754.203 6  99552419.75045  24311643.524    24311643.1584   24311646.7824
        36.900          32.2004
 117174465.766 7  91304815.87047  22297544.636    22297544.0334   22297544.4234
        46.400          44.0004
 133565778.171 6 104077240.68944  25416720.478    25416720.0544   25416721.5924
        36.900          26.3004
 122696348.440 7  95430559.775 7  22920690.435    22920690.442    22920697.042
        46.300          42.200
 110158197.953 8                  20592879.830    20592879.786
        48.500
 130459188.236 7                  24825503.791
        47.000
 123312651.371 7  95909885.395 7  23076280.870    23076281.420    23076289.193
        45.200          42.400
 126557578.874 6                  23700125.295    23700124.707
        36.600
 135010120.521 6                  25691560.788
        40.900
 132199696.558 6 103012789.25645  25156757.047    25156756.4264   25156759.6994
        36.300          30.3004
 110612932.831 8  86032354.911 7  20685160.623    20685160.921    20685167.291
        51.800          46.600
 131027520.225 6 101910330.735 5  24485624.591    24485624.122    24485631.354
        40.700          34.800
 145092258.270 6                  27610092.138
        40.800
 116580983.687 8  90674145.369 7  21870288.249    21870289.077    21870295.306
        49.000          44.000
 113514848.541 7  88289374.083 6  21235291.218    21235291.038    21235299.621
        46.200          39.600
 108676201.432 8  84526004.746 7  20294499.633    20294500.126    20294505.233
        49.800          47.200
 131580003.406 5 102529989.56342  25038798.996    25038797.5034   25038800.7264
        34.100          16.0004
 25  1  1  4 21 30.0000000  0 35E34G25E03E08S31S35G13E21E13S48S33G12
                                G20E15R22G05G11G18G06G29G15R07R23E27
                                R15R13E05G09R24R17E30R14R01R08G19
 140638835.899 6                  26762630.976
        41.900
 114296052.493 7  89061945.15347  21749789.283    21749788.3044   21749791.4474
        46.300          44.8004
 137276919.192 6                  26122918.102
        41.400
 145409894.316 6                  27670582.260
        39.500
 198981712.767 7                  37864957.164
        46.100
 200942785.492 7                  38238150.247
        44.600
 127684744.537 6  99494616.92443  24297599.685    24297599.2124   24297603.1334
        39.200          20.2004
 135114276.260 7                  25711376.018
        44.000
 130743067.330 7                  24879557.830
        46.700
 412905288.880 5                  78573321.197
        33.400
 202125999.158 7                  38463274.371
        45.700
 118344359.342 7  92216513.10047  22520135.442    22520134.8484   22520135.8234
        46.900          43.4004
 107695499.325 8  83918625.22846  20493746.144    20493744.8614   20493745.2544
        48.800          40.5004
 124951000.222 8                  23777346.458
        48.900
 126839500.006 7  98653076.152 6  23761272.957    23761274.314    23761281.145
        42.900          40.500
 106840036.905 8  83252027.18648  20330963.494    20330963.0254   20330962.7394
        50.300          50.9004
 113953877.515 8  88795331.41546  21684665.340    21684664.9784   21684665.5214
        48.500          38.2004
 134409433.896 6 104734622.51643  25577263.694    25577263.2214   25577265.3274
        37.800          19.1004
 127798223.040 6  99583174.66945  24319153.841    24319153.4794   24319157.5384
        38.700          32.0004
 117132338.159 7  91271989.17447  22289528.064    22289527.4654   22289527.8144
        46.700          43.9004
 133510750.377 6 104034361.93744  25406248.870    25406248.4324   25406250.7694
        37.400          25.6004
 122746117.757 7  95469269.212 7  22929988.354    22929988.466    22929994.345
        47.000          42.500
 110176382.338 8                  20596279.705    20596279.529
        49.200
 130487577.269 7                  24830906.127
        47.000
 123290034.393 7  95892294.410 6  23072048.837    23072049.302    23072056.301
        45.100          41.800
 126617847.298 6                  23711410.809    23711410.975
        36.600
 135015926.957 6                  25692665.325
        41.100
 132231585.740 6 103037637.86345  25162825.763    25162825.1424   25162827.9544
        36.800          30.2004
 110585964.933 8  86011379.884 7  20680117.747    20680117.972    20680124.016
        52.000          46.500
 130984126.057 6 101876579.715 5  24477514.087    24477515.335    24477521.324
        40.600          34.200
 145139119.559 6                  27619009.790
        39.800
 116608385.050 8  90695457.539 7  21875429.083    21875428.961    21875435.785
        48.600          44.100
 113457719.987 7  88244940.822 6  21224603.376    21224603.892    21224612.336
        46.200          39.400
 108678063.161 8  84527452.753 7  20294847.372    20294847.764    20294852.884
        50.000          47.400
 131632761.935 6 102571100.05042  25048837.687    25048836.1494   25048840.4544
        36.500          15.7004
 25  1  1  4 21 45.0000000  0 35E34G25E03E08S31S35G13E21E13S48S33G12
                                G20E15R22G05G11G18G06G29G15R07R23E27
                                R15R13E05G09R24R17E30R14R01R08G19
 140668284.673 7                  26768234.307
        42.200
 114315809.188 7  89077339.97147  21753548.660    21753547.6864   21753551.0264
        46.500          44.7004
 137249279.129 6                  26117658.305
        41.200
 145366623.720 6                  27662348.253
        39.500
 198981705.384 7                  37864951.423
        46.100
 200942808.422 7                  38238152.894
        44.700
 127634502.788 6  99455467.52743  24288038.675    24288038.2024   24288041.8704
        39.100          20.0004
 135102307.315 7                  25709098.369
        44.000
 130723885.963 7                  24875907.282
        46.700
 412905084.340 5                  78573289.775
        33.000
 202125979.575 7                  38463268.661
        45.800
 118391297.754 7  92253088.47047  22529067.839    22529067.2454   22529067.9164
        46.700          43.3004
 107714501.019 8  83933431.74346  20497362.180    20497360.8974   20497361.1644
        48.400          40.5004
 124960614.980 8                  23779176.193
        49.100
 126879708.373 6  98684349.239 6  23768806.444    23768806.096    23768813.503
        41.700          40.800
 106821056.843 8  83237237.54148  20327351.527    20327351.0544   20327350.9564
        50.300          50.9004
 113979685.457 8  88815441.49146  21689576.502    21689576.1404   21689576.5934
        48.400          38.1004
 134369100.949 6 104703194.23143  25569588.603    25569588.1304   25569590.1094
        38.200          19.8004
 127837696.641 6  99613933.29645  24326665.453    24326665.0874   24326669.2024
        37.500          31.8004
 117090260.450 7  91239201.35847  22281520.606    22281520.0074   22281520.6684
        46.500          43.8004
 133455684.410 6 103991453.41444  25395770.628    25395770.1994   25395771.7634
        37.500          26.1004
 122796008.273 7  95508072.956 7  22939307.400    22939307.828    22939314.141
        46.400          42.100
 110194626.581 8                  20599689.897    20599689.696
        48.400
 130516050.021 7                  24836324.313
        46.900
 123267594.217 7  95874840.942 7  23067849.223    23067849.876    23067857.220
        45.300          42.000
 126678112.878 6                  23722697.201    23722696.921
        37.000
 135021839.051 6                  25693790.402
        41.100
 132263583.732 6 103062571.22944  25168914.967    25168914.3504   25168917.2944
        36.200          29.8004
 110559036.129 8  85990435.272 7  20675081.908    20675082.018    20675088.142
        52.000          46.700
 130940716.436 7 101842816.669 6  24469402.569    24469402.810    24469411.013
        43.300          37.100
 145185982.556 6                  27627927.624
        40.100
 116635946.183 8  90716893.958 7  21880600.534    21880600.196    21880606.720
        49.400          44.200
 113400693.847 7  88200587.172 6  21213935.425    21213935.897    21213944.105
        45.900          39.600
 108680132.799 8  84529062.482 7  20295233.655    20295234.345    20295239.456
        50.100          47.200
 131685549.886 6 102612233.41842  25058883.473    25058881.9494   25058885.8554
        36.900          16.6004
 25  1  1  4 22  0.0000000  0 35E34G25E03E08S31S35G13E21E13S48S33G12
                                G20E15R22G05G11G18G06G29G15R07R23E27
                                R15R13E05G09R24R17E30R14R01R08G19
 140697732.157 7                  26773838.513
        42.300
 114335699.512 7  89092838.91647  21757333.599    21757332.6254   21757336.0044
        46.600          44.9004
 137221709.521 6                  26112411.847
        41.200
 145323340.619 6                  27654111.769
        39.700
 198981698.046 7                  37864952.970
        46.200
 200942830.913 7                  38238158.899
        45.000
 127584254.193 6  99416312.83243  24278476.860    24278476.3784   24278480.0834
        39.800          20.2004
 135090441.578 7                  25706840.482
        43.900
 130704729.939 7                  24872262.403
        47.000
 412904879.372 5                  78573257.722
        33.600
 202125959.259 7                  38463258.859
        45.700
 118438307.214 7  92289719.20447  22538013.759    22538013.1564   22538013.4784
        46.500          43.3004
 107733604.816 8  83948317.81746  20500997.388    20500996.1054   20500996.5184
        48.300          40.5004
 124970253.698 8                  23781010.426
        49.200
 126919939.322 7  98715639.911 6  23776342.333    23776342.676    23776349.243
        42.300          39.300
 106802209.655 8  83222551.43148  20323765.108    20323764.6304   20323764.4554
        50.000          50.9004
 114005533.472 8  88835582.79946  21694495.064    21694494.7024   21694495.2884
        48.300          38.0004
 134328774.286 6 104671770.85843  25561913.785    25561913.2894   25561916.1124
        37.900          20.2004
 127877172.472 6  99644693.66845  24334176.999    24334176.6194   24334181.2154
        38.300          32.1004
 117048230.601 7  91206450.83847  22273522.503    22273521.9134   22273522.6164
        46.600          43.9004
 133400577.591 6 103948513.06444  25385283.865    25385283.4454   25385284.5744
        37.800          26.1004
 122846016.585 7  95546968.313 7  22948649.794    22948650.139    22948656.067
        46.500          42.300
 110212928.238 8                  20603111.513    20603111.252
        48.900
 130544603.797 7                  24841758.050
        47.000
 123245328.505 7  95857523.159 6  23063682.020    23063683.048    23063690.633
        44.800          41.500
 126738372.430 6                  23733981.171    23733981.400
        36.900
 135027854.161 6                  25694935.081
        41.500
 132295688.119 6 103087587.57044  25175023.985    25175023.3774   25175026.5904
        37.400          28.6004
 110532144.348 8  85969519.442 7  20670052.713    20670052.958    20670059.481
        51.700          46.700
 130897288.855 6 101809039.680 6  24461286.492    24461287.012    24461294.459
        40.700          36.000
 145232844.532 6                  27636845.069
        40.700
 116663664.321 8  90738452.509 7  21885799.525    21885799.508    21885805.487
        49.300          43.900
 113343768.262 7  88156311.746 6  21203286.856    21203286.638    21203295.374
        45.900          39.600
 108682407.810 8  84530831.932 7  20295658.462    20295659.162    20295664.394
        49.600          47.500
 131738364.684 5 102653387.72842  25068933.347    25068931.8054   25068936.2474
        35.900          17.5004
 25  1  1  4 22 15.0000000  0 35E34G25E03E08S31S35G13E21E13S48S33G12
                                G20E15R22G05G11G18G06G29G15R07R23E27
                                R15R13E05G09R24R17E30R14R01R08G19
 140727180.355 7                  26779442.139
        42.400
 114355725.260 7  89108443.39047  21761144.480    21761143.5064   21761146.7304
        46.500          44.6004
 137194212.593 6                  26107179.355
        41.800
 145280047.304 6                  27645873.686
        39.200
 198981691.496 7                  37864952.599
        46.000
 200942854.399 7                  38238161.515
        45.100
 127534001.129 6  99377154.65443  24268914.221    24268913.7344   24268917.3574
        39.800          20.3004
 135078681.112 7                  25704602.682
        44.200
 130685601.237 7                  24868622.324
        46.900
 412904674.777 5                  78573237.394
        33.500
 202125940.670 7                  38463256.127
        45.800
 118485389.276 7  92326406.51647  22546972.717    22546972.1004   22546972.9464
        46.200          43.1004
 107752812.370 8  83963284.74446  20504652.450    20504651.1724   20504651.5504
        48.400          40.3004
 124979918.336 8                  23782849.460
        49.200
 126960194.926 6  98746949.781 6  23783883.896    23783883.750    23783890.406
        41.400          39.800
 106783497.289 8  83207970.37648  20320204.361    20320203.9054   20320203.5954
        49.700          50.7004
 114031423.457 8  88855756.79946  21699421.652    21699421.2814   21699421.9834
        48.200          37.8004
 134288455.946 6 104640353.97243  25554242.108    25554241.6214   25554243.8134
        38.900          19.3004
 127916652.510 6  99675457.31345  24341689.506    24341689.1004   24341694.1804
        38.700          32.1004
 117006250.771 7  91173739.29347  22265534.283    22265533.6984   22265534.1164
        46.500          43.7004
 133345432.301 6 103905542.71844  25374790.328    25374789.9084   25374790.4314
        38.000          25.5004
 122896144.595 7  95585956.779 7  22958013.475    22958014.298    22958020.217
        46.600          42.400
 110231289.290 8                  20606543.472    20606543.835
        48.800
 130573240.423 7                  24847207.326
        47.300
 123223239.573 7  95840342.880 7  23059549.390    23059549.959    23059557.423
        45.700          42.000
 126798627.705 6                  23745266.117    23745264.829
        36.800
 135033974.350 6                  25696099.573
        41.700
 132327900.850 6 103112688.55344  25181154.482    25181153.8974   25181156.2904
        37.000          29.8004
 110505291.442 8  85948633.857 7  20665031.442    20665031.572    20665037.688
        52.100          46.800
 130853845.416 6 101775250.379 5  24453169.117    24453168.544    24453177.109
        39.200          35.200
 145279707.254 6                  27645762.563
        40.800
 116691541.049 8  90760134.400 7  21891028.866    21891029.133    21891035.376
        48.900          44.200
 113286945.829 7  88112116.531 6  21192657.259    21192657.113    21192665.303
        46.600          39.300
 108684890.192 8  84532762.682 7  20296122.177    20296122.749    20296127.918
        49.900          47.400
 131791208.133 5 102694564.38342  25078990.366    25078988.8334   25078991.7954
        34.300          15.3004
 25  1  1  4 22 30.0000000  0 35E34G25E03E08S31S35G13E21E13S48S33G12
                                G20E15R22G05G11G18G06G29G15R07R23E27
                                R15R13E05G09R24R17E30R14R01R08G19
 140756625.526 6                  26785045.517
        41.600
 114375882.410 7  89124150.24947  21764979.972    21764978.9984   21764982.4834
        46.900          44.6004
 137166784.821 6                  26101959.538
        41.900
 145236740.218 6                  27637632.601
        39.400
 198981682.449 7                  37864952.205
        46.000
 200942875.705 7                  38238161.198
        44.500
 127483740.196 6  99337990.37443  24259350.049    24259349.5494   24259352.9324
        39.300          19.9004
 135067022.251 7                  25702383.810
        44.100
 130666496.057 7                  24864986.709
        46.800
 412904468.367 5                  78573212.979
        33.200
 202125919.163 7                  38463253.296
        45.600
 118532539.804 7  92363147.16447  22555945.476    22555944.8684   22555945.4184
        46.700          43.1004
 107772119.680 8  83978329.40346  20508326.530    20508325.2524   20508325.6374
        48.700          40.4004
 124989605.095 8                  23784692.755
        49.200
 127000471.409 7  98778275.864 6  23791428.900    23791429.331    23791436.122
        42.500          40.400
 106764916.271 8  83193491.66948  20316668.280    20316667.8244   20316667.7364
        50.100          50.7004
 114057351.619 8  88875960.54846  21704355.691    21704355.3164   21704355.9364
        48.400          37.7004
 134248142.202 6 104608940.66343  25546570.366    25546569.9104   25546572.3564
        39.000          19.3004
 127956132.996 6  99706221.30445  24349203.178    24349202.7724   24349206.7214
        37.200          31.7004
 116964317.730 7  91141064.20547  22257554.625    22257554.0354   22257554.5374
        46.700          43.8004
 133290245.164 6 103862539.77544  25364288.212    25364287.7884   25364288.8974
        38.000          26.1004
 122946387.893 7  95625034.893 6  22967399.564    22967400.345    22967406.399
        46.100          41.700
 110249706.022 8                  20609986.803    20609986.492
        49.000
 130601955.945 7                  24852671.857
        46.900
 123201323.659 7  95823297.175 6  23055447.987    23055448.216    23055455.380
        45.900          41.000
 126858874.152 6                  23756548.182    23756546.652
        36.000
 135040195.906 6                  25697283.518
        41.200
 132360217.558 6 103137870.61745  25187302.804    25187302.1874   25187305.9974
        38.000          30.0004
 110478474.053 8  85927775.902 7  20660016.314    20660016.518    20660022.481
        51.900          46.800
 130810382.245 6 101741445.733 5  24445046.566    24445046.691    24445054.223
        39.800          35.000
 145326566.830 6                  27654679.668
        40.500
 116719571.982 8  90781936.220 7  21896287.500    21896287.578    21896294.518
        48.800          44.200
 113230223.219 7  88067998.982 6  21182045.745    21182046.199    21182053.838
        46.300          39.700
 108687576.228 8  84534851.823 7  20296623.807    20296624.322    20296629.617
        50.200          47.500
 131844076.293 6 102735760.23942  25089050.231    25089048.6574   25089052.7894
        37.400          16.2004
 25  1  1  4 22 45.0000000  0 35E34G25E03E08S31S35G13E21E13S48S33G12
                                G20E15R22G05G11G18G06G29G15R07R23E27
                                R15R13E05G09R24R17E30R14R01R08G19
 140786070.278 6                  26790648.648
        41.700
 114396173.317 7  89139961.33747  21768841.461    21768840.4874   21768843.7204
        46.300          44.6004
 137139429.008 6                  26096754.270
        41.900
 145193422.229 6                  27629389.139
        39.500
 198981673.985 7                  37864947.971
        46.100
 200942897.638 7                  38238172.310
        44.700
 127433474.174 6  99298822.09743  24249784.231    24249783.7264   24249787.2644
        39.900          19.6004
 135055467.681 7                  25700185.118
        44.200
 130647416.957 7                  24861355.993
        46.700
 412904261.817 5                  78573180.167
        33.300
 202125898.177 7                  38463252.120
        45.600
 118579760.926 7  92399942.82847  22564931.349    22564930.7414   22564931.3714
        46.300          43.0004
 107791529.131 8  83993453.64946  20512019.902    20512018.6284   20512019.1164
        48.200          40.2004
 124999316.528 8                  23786540.760
        49.200
 127040771.399 7  98809620.234 6  23798978.739    23798978.025    23798986.246
        42.900          40.300
 106746468.959 8  83179117.14948  20313157.792    20313157.3324   20313157.3204
        50.100          50.7004
 114083320.488 8  88896196.02346  21709297.715    21709297.3444   21709297.6384
        48.100          37.5004
 134207835.574 6 104577532.89543  25538900.443    25538899.9964   25538902.0434
        37.700          18.7004
 127995616.472 6  99736987.62645  24356716.450    24356716.0704   24356720.2544
        36.800          31.8004
 116922434.072 7  91108427.59947  22249584.307    22249583.7134   22249584.3264
        46.400          43.7004
 133235019.042 6 103819506.44744  25353779.336    25353778.9034   25353779.9814
        37.800          25.5004
 122996748.398 7  95664204.208 7  22976808.027    22976807.776    22976813.674
        45.900          42.300
 110268181.024 8                  20613440.265    20613440.029
        49.000
 130630752.770 7                  24858151.360
        47.000
 123179583.787 7  95806388.397 6  23051380.347    23051381.114    23051386.723
        46.400          40.700
 126919114.006 6                  23767828.814    23767828.502
        36.700
 135046521.343 6                  25698487.234
        40.900
 132392640.255 6 103163135.06244  25193472.612    25193472.0044   25193476.1604
        36.500          28.3004
 110451694.729 8  85906947.554 7  20655008.304    20655008.542    20655014.939
        51.800          46.700
 130766902.022 7 101707627.725 5  24436921.115    24436921.990    24436928.534
        42.900          35.600
 145373425.574 6                  27663596.818
        39.600
 116747759.542 8  90803859.883 7  21901575.531    21901575.325    21901582.015
        48.400          44.200
 113173603.622 7  88023961.558 6  21171454.137    21171453.940    21171462.434
        45.400          39.500
 108690468.450 8  84537101.338 7  20297163.819    20297164.337    20297169.695
        49.900          47.700
 131896971.579 5 102776977.29642  25099115.545    25099113.9404   25099118.4434
        34.600          15.0004
 25  1  1  4 23  0.0000000  0 35E34G25E03E08S31S35G13E21E13S48S33G12
                                G20E15R22G05G11G18G06G29G15R07R23E27
                                R15R13E05G09R24R17E30R14R01R08G19
 140815519.190 6                  26796252.605
        41.500
 114416602.369 7  89155880.07047  21772729.068    21772728.0944   21772731.2604
        46.600          44.5004
 137112150.019 7                  26091563.280
        42.100
 145150098.179 6                  27621144.836
        38.400
 198981670.751 7                  37864949.281
        46.100
 200942923.664 7                  38238175.547
        44.700
 127383208.210 6  99259653.87843  24240218.528    24240218.0374   24240222.2224
        40.400          20.1004
 135044022.123 7                  25698007.070
        44.100
 130628368.506 7                  24857731.267
        46.900
 412904059.685 5                  78573153.431
        33.500
 202125881.561 7                  38463248.145
        45.700
 118627056.697 7  92436796.66547  22573931.335    22573930.7234   22573931.4244
        46.300          43.0004
 107811045.251 8  84008661.01646  20515733.838    20515732.5694   20515732.9024
        48.100          40.2004
 125009057.217 8                  23788394.530
        49.200
 127081099.670 7  98840986.583 6  23806533.855    23806533.649    23806541.298
        42.900          40.600
 106728160.267 8  83164850.64648  20309673.726    20309673.2614   20309673.2864
        49.800          50.7004
 114109334.607 8  88916466.75546  21714247.611    21714247.2364   21714247.9744
        48.200          37.4004
 134167540.738 6 104546134.32742  25531233.061    25531232.6054   25531234.0474
        37.100          17.6004
 128035107.633 6  99767759.93545  24364231.551    24364231.1984   24364235.1654
        37.700          31.8004
 116880604.705 7  91075833.29647  22241624.695    22241624.1054   22241624.4264
        46.200          43.7004
 133179758.923 6 103776446.62844  25343263.444    25343263.0064   25343264.5004
        37.200          25.9004
 123047230.724 7  95703468.226 7  22986238.619    22986238.415    22986244.487
        46.100          42.000
 110286719.263 8                  20616905.552    20616905.666
        48.500
 130659635.363 7                  24863647.727
        47.200
 123158024.945 7  95789620.419 6  23047345.602    23047345.533    23047352.031
        46.000          40.900
 126979351.598 6                  23779110.886    23779109.767
        38.000
 135052955.297 6                  25699711.603
        40.800
 132425173.645 6 103188485.81644  25199663.988    25199663.3764   25199666.6394
        36.000          29.3004
 110424958.370 8  85886152.610 7  20650008.574    20650008.722    20650015.048
        51.800          46.700
 130723409.481 6 101673800.221 6  24428793.873    24428793.940    24428801.802
        41.200          36.300
 145420287.885 6                  27672514.672
        39.700
 116776107.910 8  90825908.605 7  21906893.326    21906893.690    21906900.085
        48.800          44.200
 113117092.222 7  87980008.283 6  21160881.917    21160881.710    21160890.445
        45.100          39.800
 108693571.472 8  84539514.806 7  20297743.405    20297743.811    20297749.083
        49.400          47.600
 131949898.536 5 102818219.01542  25109187.477    25109185.8414   25109190.2014
        34.000          14.9004
